airport_ident,length__meters,width__meters,le_ident,le_heading_degT,le_displaced_threshold__meters,he_ident,he_heading_degT,he_displaced_threshold__meters,le_latitude_deg,le_longitude_deg,he_latitude_deg,he_longitude_deg
06FA,2135,46,09,90,73,27,270,73,26.908100128173828,-80.33920288085938,26.908199310302734,-80.31770324707031
07MT,4115,91,10,120,0,28,300,0,48.430301666259766,-106.552001953125,48.411800384521484,-106.50399780273438
17FL,2301,64,18,180,549,36,255,593,29.290599822998047,-82.12480163574219,29.269899368286133,-82.12480163574219
2IG4,1768,30,18,180,0,36,335,470,38.85929870605469,-87.4999008178711,38.84339904785156,-87.49970245361328
89TE,2286,30,07,78,0,25,330,0,29.275800704956055,-103.6989974975586,29.280099868774414,-103.6760025024414
AGGH,2200,45,06,68,0,24,248,0,-9.431739807128906,160.0449981689453,-9.424260139465332,160.06399536132812
AHJ,3600,45,16,163,0,34,343,0,32.547001,102.347,32.516102,102.358002
ANYN,2150,45,12,121,50,30,301,116,-0.5411810278892517,166.91200256347656,-0.5537390112876892,166.92599487304688
AR-0462,1800,33,03,30,0,21,210,0,-1.0,-1.0,-1.0,-1.0
AU-0539,3700,476,05,152,61,23,238,61,15.0,-29.0,34.6,-78.1
AYMO,1870,45,16,161,0,34,341,60,-2.0539300441741943,147.42100524902344,-2.0698800086975098,147.427001953125
AYPY,2750,45,14L,148,0,32R,328,0,-9.430870056152344,147.21400451660156,-9.452099800109863,147.2270050048828
BGBW,1830,45,07,41,0,25,221,0,61.15439987182617,-45.4369010925293,61.16669845581055,-45.415000915527344
BGSF,2810,60,09,62,0,27,242,0,67.00559997558594,-50.743099212646484,67.0176010131836,-50.6864013671875
BGTL,3047,43,08T,85,0,26T,265,0,76.52999877929688,-68.7614974975586,76.53240203857422,-68.6447982788086
BIAR,2400,45,01,355,0,19,175,0,65.6500015258789,-18.07069969177246,65.66729736328125,-18.073999404907227
BIEG,2000,45,03,25,153,21,205,0,65.27459716796875,-14.411199569702148,65.29080200195312,-14.392800331115723
BIKF,3054,60,01,14,0,19,194,0,63.9645,-22.605499,63.991901,-22.6054
BIKF,3065,60,10,104,13,28,284,13,63.985001,-22.655001,63.985001,-22.5924
BKPR,3040,45,17,176,0,35,356,0,42.58533477783203,21.03459930419922,42.55803680419922,21.03737449645996
BR-0569,2100,45,15,126,0,33,306,0,-14.902299880981445,-40.92259979248047,-14.91349983215332,-40.90700149536133
BY-0009,2500,40,15,-1,0,33,-1,0,-1.0,-1.0,-1.0,-1.0
BY-9934,2473,42,11,-1,0,29,-1,0,-1.0,-1.0,-1.0,-1.0
CDL7,2406,75,17,-1,0,35,-1,0,-1.0,-1.0,-1.0,-1.0
CFG6,2100,45,16,-1,0,34,-1,0,-1.0,-1.0,-1.0,-1.0
CN-0061,2800,55,01,-1,0,19,-1,0,-1.0,-1.0,-1.0,-1.0
CN-0149,2400,50,08,80,0,26,260,0,-1.0,-1.0,-1.0,-1.0
CN-0164,3600,45,16,-1,0,34,-1,0,-1.0,-1.0,-1.0,-1.0
CN-0164,3600,45,17,166,0,35,346,0,36.28099822998047,120.37000274658203,36.25120162963867,120.37899780273438
CN-0218,2185,45,01,360,125,19,180,60,37.602174,117.885706,37.620729,117.885687
CRHA,2835,35,R20,-1,0,R23,-1,0,-1.0,-1.0,-1.0,-1.0
CVH,1935,30,13,142,0,31,322,0,36.90129852294922,-121.41799926757812,36.88759994506836,-121.40499877929688
CYAM,1829,61,04,34,0,22,214,0,46.47779846191406,-84.51529693603516,46.49169921875,-84.50189971923828
CYAM,1829,61,12,108,0,30,288,0,46.48600769042969,-84.52088165283203,46.4809684753418,-84.49822235107422
CYBC,1829,46,10,80,0,28,260,0,49.13090133666992,-68.21959686279297,49.13359832763672,-68.1948013305664
CYBG,3048,46,11,91,0,29,271,0,48.332801818847656,-71.01580047607422,48.33250045776367,-70.9749984741211
CYBG,1829,46,18,163,0,36,343,0,48.337501525878906,-70.99639892578125,48.3218994140625,-70.9894027709961
CYBL,1981,46,12,137,0,30,317,0,49.95833969116211,-125.2828140258789,49.945743560791016,-125.26329803466797
CYBR,1981,46,08,90,0,26,270,0,49.907100677490234,-99.96589660644531,49.907501220703125,-99.93830108642578
CYCD,2012,46,16,181,60,34,1,305,49.059200286865234,-123.87000274658203,49.045501708984375,-123.87000274658203
CYCH,3050,46,09,72,0,27,252,0,47.00529861450195,-65.46040344238281,47.01029968261719,-65.43789672851562
CYCL,1829,46,12,105,0,30,285,0,47.99250030517578,-66.34329986572266,47.98830032348633,-66.31939697265625
CYCZ,1830,30,15,170,0,33,350,250,50.34000015258789,-115.8759994506836,50.32389831542969,-115.87100219726562
CYDF,2440,46,07,48,0,25,228,0,49.205299377441406,-57.400699615478516,49.216400146484375,-57.38209915161133
CYEG,3353,61,02,34,0,20,214,0,53.30889892578125,-113.59600067138672,53.33420181274414,-113.56800079345703
CYEG,3109,61,12,135,0,30,315,0,53.306400299072266,-113.59500122070312,53.28670120239258,-113.56199645996094
CYET,1829,30,07,91,181,25,271,148,53.57899856567383,-116.47899627685547,53.578800201416016,-116.45099639892578
CYEV,1829,46,06,86,0,24,266,0,68.3031997680664,-133.5050048828125,68.30439758300781,-133.46099853515625
CYFB,2623,61,16,137,61,34,317,63,63.76537322998047,-68.5755386352539,63.74776840209961,-68.53666687011719
CYFC,2440,61,09,71,0,27,251,0,45.862998962402344,-66.55229949951172,45.87030029296875,-66.52249908447266
CYFC,1829,61,15,131,0,33,311,0,45.8744010925293,-66.53939819335938,45.86360168457031,-66.52169799804688
CYFS,1829,46,14,156,0,32,336,0,61.767799377441406,-121.24400329589844,61.75279998779297,-121.2300033569336
CYGL,1981,46,13,113,0,31,293,0,53.62879943847656,-77.71790313720703,53.62189865112305,-77.69039916992188
CYGM,2073,46,15,150,0,33,330,0,50.63610076904297,-97.04940032958984,50.61970138549805,-97.03469848632812
CYHD,1829,46,12,114,0,30,294,61,49.834999084472656,-92.75559997558594,49.82830047607422,-92.73190307617188
CYHM,1832,46,06,49,0,24,229,0,43.16669845581055,-79.93470001220703,43.1776008605957,-79.91780090332031
CYHM,3050,61,12,107,488,30,287,0,43.180599,-79.953102,43.172199,-79.917503
CYHU,2390,46,06L,47,335,24R,227,0,45.5107536315918,-73.42913055419922,45.525386810302734,-73.4068603515625
CYHY,1829,46,14,154,0,32,334,0,60.847198486328125,-115.7959976196289,60.83190155029297,-115.78299713134766
CYHZ,3200,61,05,35,0,23,215,110,44.86859893798828,-63.525001525878906,44.888301849365234,-63.50559997558594
CYHZ,2347,61,14,126,0,32,306,0,44.89360046386719,-63.5182991027832,44.881099700927734,-63.49420166015625
CYJT,3048,61,09,72,0,27,252,0,48.54029846191406,-58.569400787353516,48.54890060424805,-58.53030014038086
CYKA,2438,45,09,103,0,27,283,0,50.70389938354492,-120.45600128173828,50.70029830932617,-120.43099975585938
CYKF,2134,46,08,64,0,26,244,0,43.457969665527344,-80.38973236083984,43.465301513671875,-80.3667984008789
CYLS,1829,30,10,89,0,28,269,92,44.48529815673828,-79.56529998779297,44.485599517822266,-79.54640197753906
CYLW,2713,61,16,175,366,34,355,122,49.96609878540039,-119.37899780273438,49.94620132446289,-119.3759994506836
CYMJ,2538,46,11L,118,0,29R,298,0,50.33789825439453,-105.57499694824219,50.32699966430664,-105.54299926757812
CYMJ,2219,46,11R,118,0,29L,298,0,50.33110046386719,-105.5739974975586,50.32170104980469,-105.5459976196289
CYMM,2287,46,08,90,0,26,270,152,56.6531982421875,-111.24199676513672,56.6531982421875,-111.20700073242188
CYMT,1980,46,05,28,0,23,208,0,49.763999938964844,-74.53450012207031,49.779701232910156,-74.52149963378906
CYMX,3658,61,06,45,0,24,225,0,45.67040252685547,-74.0217514038086,45.69369125366211,-73.98856353759766
CYND,1829,46,09,75,0,27,255,0,45.51959991455078,-75.57489776611328,45.523799896240234,-75.55229949951172
CYOD,2521,61,04,52,0,22,232,0,54.39670181274414,-110.28500366210938,54.41059875488281,-110.25499725341797
CYOD,3840,61,13L,143,0,31R,323,0,54.41889953613281,-110.30500030517578,54.3911018371582,-110.2699966430664
CYOD,3048,46,13R,143,0,31L,323,0,54.41669845581055,-110.31099700927734,54.39440155029297,-110.28199768066406
CYOW,2438,61,07,57,0,25,237,0,45.31330108642578,-75.6709976196289,45.325199127197266,-75.6447982788086
CYOW,3048,61,14,126,0,32,306,0,45.32703399658203,-75.68624114990234,45.310791015625,-75.65492248535156
CYPG,2134,61,13R,133,0,31L,313,0,49.90769958496094,-98.28450012207031,49.89440155029297,-98.26329803466797
CYPQ,2134,30,09,76,0,27,256,503,44.22821044921875,-78.37615203857422,44.23286819458008,-78.3502426147461
CYPR,1829,61,13,152,0,31,332,0,54.29330062866211,-130.45199584960938,54.278900146484375,-130.43800354003906
CYQA,1829,46,18,169,244,36,349,0,44.98469924926758,-79.30829620361328,44.96860122680664,-79.30419921875
CYQB,2743,46,06,44,0,24,224,0,46.7822,-71.406403,46.799974,-71.381072
CYQD,1799,46,13,133,0,31,313,0,53.976898193359375,-101.10099792480469,53.96580123901367,-101.08100128173828
CYQG,2743,61,07,62,275,25,242,348,42.27330017089844,-82.97059631347656,42.2849006652832,-82.94120025634766
CYQI,1829,46,06,42,0,24,222,0,43.817501068115234,-66.09750366210938,43.8297004699707,-66.08219909667969
CYQK,1768,46,08,77,0,26,257,0,49.786598205566406,-94.3750991821289,49.79010009765625,-94.35130310058594
CYQL,1981,61,06,70,0,24,250,0,49.6239013671875,-112.81500244140625,49.62990188598633,-112.79000091552734
CYQM,3048,61,06,44,0,24,224,0,46.105988,-64.694305,46.126205,-64.667664
CYQM,2438,61,11,89,0,29,269,0,46.106842,-64.694359,46.1078,-64.662849
CYQQ,3048,61,12,135,0,30,315,0,49.720699310302734,-124.9020004272461,49.70119857788086,-124.87200164794922
CYQR,1890,46,08,89,0,26,269,0,50.4281005859375,-104.68000030517578,50.42829895019531,-104.65399932861328
CYQR,2408,46,13,138,0,31,318,0,50.43920135498047,-104.6709976196289,50.423301696777344,-104.64800262451172
CYQT,2231,61,07,70,0,25,250,0,48.37009811401367,-89.33380126953125,48.376800537109375,-89.3052978515625
CYQU,1890,61,07,89,0,25,269,0,55.18439865112305,-118.9000015258789,55.18439865112305,-118.87000274658203
CYQU,2591,45,12,135,122,30,315,0,55.190102,-118.904587,55.173679,-118.875717
CYQX,3109,61,03,11,0,21,191,0,48.920799255371094,-54.56829833984375,48.94839859008789,-54.56019973754883
CYQX,2713,61,13,107,0,31,287,0,48.95330047607422,-54.58639907836914,48.94609832763672,-54.55110168457031
CYQY,2155,61,06,46,0,24,226,0,46.15380096435547,-60.06119918823242,46.167198181152344,-60.041099548339844
CYQY,1828,46,18,165,0,36,345,0,46.16889953613281,-60.042198181152344,46.15250015258789,-60.03580093383789
CYRC,1855,46,12,106,0,30,286,0,48.51898193359375,-71.06260681152344,48.514747619628906,-71.03852081298828
CYRI,1829,46,05,33,0,23,213,0,47.75749969482422,-69.5916976928711,47.771400451660156,-69.5781021118164
CYRQ,2745,46,05,31,0,23,211,0,46.345699310302734,-72.68560028076172,46.359798431396484,-72.67320251464844
CYRT,1829,46,13T,129,0,31T,309,0,62.81660079956055,-92.12979888916016,62.80619812011719,-92.10189819335938
CYSB,2012,61,04,28,0,22,208,0,46.61750030517578,-80.80470275878906,46.63330078125,-80.79219818115234
CYSC,1829,46,13,119,0,31,299,0,45.442501068115234,-71.70159912109375,45.43450164794922,-71.68109893798828
CYSJ,2134,61,05,30,0,23,210,0,45.3025016784668,-65.89420318603516,45.31919860839844,-65.88059997558594
CYSM,1829,30,12,131,0,30,311,0,60.02750015258789,-111.9729995727539,60.016700744628906,-111.947998046875
CYSU,2438,61,06,36,0,24,216,0,46.431400299072266,-63.84280014038086,46.44919967651367,-63.82419967651367
CYTH,1768,46,05,61,0,23,241,0,55.7963981628418,-97.87470245361328,55.804100036621094,-97.85009765625
CYTR,3048,61,06,51,305,24,231,305,44.1088981628418,-77.54219818115234,44.12599182128906,-77.51644134521484
CYTS,1829,46,03,21,0,21,201,0,48.5630989074707,-81.37889862060547,48.57830047607422,-81.37000274658203
CYUL,3353,61,06L,43,0,24R,223,0,45.461063385009766,-73.7650146484375,45.4832763671875,-73.73592376708984
CYUL,2926,61,06R,41,0,24L,221,0,45.45766067504883,-73.74138641357422,45.477020263671875,-73.71601104736328
CYUL,2134,61,10,88,0,28,268,0,45.462501525878906,-73.76499938964844,45.46329879760742,-73.73829650878906
CYUY,2281,46,08,62,0,26,242,0,48.20100021362305,-78.8488998413086,48.210601806640625,-78.82170104980469
CYVB,1824,46,13,115,0,31,295,0,48.074501037597656,-65.47129821777344,48.06760025024414,-65.4490966796875
CYVO,3048,46,18,169,0,36,349,0,48.06669998168945,-77.7864990234375,48.039798736572266,-77.77880096435547
CYVP,1829,46,07,43,0,25,223,0,58.08440017700195,-68.43810272216797,58.09640121459961,-68.41670227050781
CYVQ,1828,46,09,119,0,27,299,0,65.28559875488281,-126.81500244140625,65.27770233154297,-126.78099822998047
CYVR,3030,61,08L,100,0,26R,280,0,49.20500183105469,-123.20099639892578,49.200599670410156,-123.16000366210938
CYVR,3505,61,08R,100,212,26L,280,0,49.190101623535156,-123.20800018310547,49.18439865112305,-123.16100311279297
CYVR,2225,61,13,142,0,31,322,0,49.19990158081055,-123.20099639892578,49.184200286865234,-123.18199920654297
CYWG,2652,61,13,137,0,31,317,0,49.91279983520508,-97.252197265625,49.895301818847656,-97.22720336914062
CYWG,3353,61,18,189,0,36,9,0,49.92530059814453,-97.23419952392578,49.895599365234375,-97.24169921875
CYWK,1829,46,18,157,0,36,337,0,52.93046569824219,-66.86924743652344,52.91498565673828,-66.86009979248047
CYWL,2134,46,11,135,0,29,315,0,52.18920135498047,-122.06400299072266,52.17580032348633,-122.04299926757812
CYXC,1829,46,16,178,0,34,358,0,49.61970138549805,-115.78299713134766,49.60329818725586,-115.78199768066406
CYXD,1789,61,12,138,244,30,318,361,53.57780075073242,-113.52799987792969,53.56560134887695,-113.51000213623047
CYXE,2530,61,09,101,0,27,281,0,52.17850112915039,-106.71800231933594,52.174198150634766,-106.68199920654297
CYXE,1890,46,15,165,0,33,345,0,52.179199,-106.705002,52.16294,-106.696728
CYXJ,2042,61,02,45,0,20,225,58,56.231998443603516,-120.75,56.244998931884766,-120.72699737548828
CYXJ,2103,46,11,136,0,29,316,0,56.244998931884766,-120.75299835205078,56.2317008972168,-120.7300033569336
CYXR,1828,46,08,63,0,26,243,0,47.69390106201172,-79.85800170898438,47.70130157470703,-79.83619689941406
CYXS,3490,46,15,170,0,33,350,152,53.900299072265625,-122.6709976196289,53.88029861450195,-122.66400146484375
CYXT,2285,46,15,172,0,33,352,0,54.47869873046875,-128.58999633789062,54.45840072631836,-128.5850067138672
CYXU,1920,61,09,78,0,27,258,0,43.03810119628906,-81.16390228271484,43.04169845581055,-81.14080047607422
CYXU,2682,61,15,139,0,33,319,0,43.04209899902344,-81.15979766845703,43.02399826049805,-81.13809967041016
CYXX,2926,61,07,87,0,25,267,90,49.01890182495117,-122.37999725341797,49.02040100097656,-122.33999633789062
CYXY,2895,46,14R,158,259,32L,338,427,60.72169876098633,-135.07699584960938,60.697601318359375,-135.0570068359375
CYYB,3048,61,08,65,0,26,245,0,46.35749816894531,-79.44080352783203,46.36920166015625,-79.40499877929688
CYYC,1890,46,08,90,0,26,270,0,51.10419845581055,-114.02999877929688,51.10419845581055,-114.00299835205078
CYYC,2438,61,11,120,0,29,300,0,51.126399993896484,-114.03700256347656,51.1156005859375,-114.00599670410156
CYYC,4267,61,17L,180,0,35R,0,0,51.14830017089844,-113.98999786376953,51.11000061035156,-113.98999786376953
CYYC,3863,61,17R,180,0,35L,360,0,51.13140106201172,-114.02100372314453,51.09659957885742,-114.02100372314453
CYYE,1951,61,04,57,0,22,237,0,58.8307991027832,-122.61599731445312,58.840301513671875,-122.58799743652344
CYYF,1829,45,16,182,0,34,2,91,49.469398498535156,-119.60099792480469,49.45309829711914,-119.60199737548828
CYYG,2134,46,03,9,0,21,189,0,46.279701232910156,-63.127498626708984,46.29859924316406,-63.12310028076172
CYYG,2134,46,10,79,0,28,259,0,46.29389953613281,-63.12900161743164,46.29650115966797,-63.109500885009766
CYYJ,2134,61,09,105,0,27,285,0,48.6510009765625,-123.44000244140625,48.645999908447266,-123.41200256347656
CYYQ,2804,49,15,153,0,33,333,0,58.74570083618164,-94.07769775390625,58.72330093383789,-94.0553970336914
CYYR,3367,64,08,55,0,26,235,0,53.30390167236328,-60.44810104370117,53.3213996887207,-60.406700134277344
CYYR,2920,61,15,133,0,33,313,0,53.333900451660156,-60.4364013671875,53.31610107421875,-60.40439987182617
CYYT,2591,61,11,86,0,29,266,0,47.62329864501953,-52.77330017089844,47.625,-52.73889923095703
CYYT,2135,61,16,142,0,34,322,0,47.62580108642578,-52.751399993896484,47.610599517822266,-52.7338981628418
CYYY,1829,46,06,39,152,24,219,0,48.603599548339844,-68.21640014648438,48.61640167236328,-68.20079803466797
CYYZ,3389,61,05,47,41,23,227,148,43.67390060424805,-79.66390228271484,43.694698333740234,-79.63330078125
CYYZ,2956,61,06L,47,0,24R,227,60,43.661048889160156,-79.62342834472656,43.678977966308594,-79.59736633300781
CYYZ,2743,61,06R,47,0,24L,227,0,43.65829849243164,-79.6219253540039,43.675289154052734,-79.59723663330078
CYYZ,3368,61,15L,137,0,33R,317,0,43.691898345947266,-79.64219665527344,43.66999816894531,-79.61389923095703
CYYZ,2770,61,15R,137,179,33L,317,179,43.68579864501953,-79.65170288085938,43.66749954223633,-79.62830352783203
CYZD,2135,61,15,139,0,33,319,0,43.749698638916016,-79.47419738769531,43.73529815673828,-79.45690155029297
CYZF,2286,46,16,176,0,34,356,0,62.473201751708984,-114.44400024414062,62.45280075073242,-114.44100189208984
CYZU,1768,30,11,125,0,29,305,0,54.148399353027344,-115.7979965209961,54.13930130004883,-115.7760009765625
CYZV,1997,46,09,70,0,27,250,0,50.217201232910156,-66.2791976928711,50.22359848022461,-66.25250244140625
CYZV,1759,61,13,110,0,31,290,0,50.229698181152344,-66.27690124511719,50.22420120239258,-66.25250244140625
CYZX,2438,61,08,64,0,26,244,0,44.98109817504883,-64.93250274658203,44.990699768066406,-64.90470123291016
CYZX,2438,61,12,107,0,30,287,0,44.98360061645508,-64.931396484375,44.97719955444336,-64.90170288085938
CZPC,2012,30,07,90,122,25,270,366,49.520599365234375,-114.01100158691406,49.520599365234375,-113.98300170898438
DAAE,2400,45,08,80,0,26,260,0,36.709999084472656,5.056670188903809,36.713600158691406,5.083059787750244
DAAG,3500,60,05,53,0,23,233,0,36.69390106201172,3.220170021057129,36.71289825439453,3.2513999938964844
DAAG,3500,45,09,92,0,27,272,0,36.692100524902344,3.170830011367798,36.691200256347656,3.2099199295043945
DAAJ,3000,45,13,125,0,31,305,0,24.293100357055664,9.451939582824707,24.276899337768555,9.476940155029297
DAAP,3000,45,09,90,0,27,270,0,26.723600387573242,8.607460021972656,26.723400115966797,8.637840270996094
DAAT,3600,45,02,22,0,20,202,0,22.79640007019043,5.444389820098877,22.826499938964844,5.457749843597412
DAAV,2400,45,17,171,0,35,351,0,36.80580139160156,5.871500015258789,36.784400939941406,5.8757100105285645
DABB,2290,45,05,52,0,23,232,0,36.82059860229492,7.8067498207092285,36.83330154418945,7.8267998695373535
DABB,3000,45,18,187,0,36,7,102,36.84510040283203,7.812739849090576,36.81829833984375,7.808700084686279
DABC,2400,45,13,136,0,31,316,0,36.284401,6.61472,36.268902,6.63333
DABS,3000,45,11,113,0,29,293,0,35.438469,8.108583,35.427898,8.138994
DABT,3000,45,05,55,0,23,235,0,35.744300842285156,6.29502010345459,35.7598991394043,6.322159767150879
DAOB,3000,45,08,81,0,26,261,0,35.3390998840332,1.4468599557876587,35.34320068359375,1.4794299602508545
DAOF,2999,45,08L,76,0,26R,256,0,27.6984,-8.18221,27.705099,-8.15279
DAOF,2999,45,08R,76,0,26L,256,0,27.695601,-8.18143,27.7024,-8.15197
DAOL,2754,43,08,76,0,26,256,0,35.539398193359375,-0.5469580292701721,35.545501708984375,-0.5175859928131104
DAON,2600,45,07,70,0,25,250,0,35.009300231933594,-1.4705899953842163,35.017398834228516,-1.443809986114502
DAOO,3600,45,07L,67,0,25R,247,60,35.616641998291016,-0.6421390175819397,35.628944396972656,-0.6060810089111328
DAOO,3000,45,07R,-1,0,25L,-1,0,35.614200592041016,-0.6408609747886658,35.62459945678711,-0.6102889776229858
DAUA,3000,45,04,40,0,22,220,0,27.827199935913086,-0.19611099362373352,27.848100662231445,-0.1766670048236847
DAUG,3100,60,12,122,0,30,302,0,32.3838996887207,3.7944700717926025,32.36899948120117,3.8222200870513916
DAUH,3000,45,18,184,0,36,4,0,31.686500549316406,6.141630172729492,31.659299850463867,6.139279842376709
DAUI,3000,45,05,51,0,23,231,0,27.24250030517578,2.5002799034118652,27.25950050354004,2.5237600803375244
DAUK,3000,45,01,9,0,19,189,0,33.060001373291016,6.087220191955566,33.086700439453125,6.091939926147461
DAUL,3806,45,16L,157,0,34R,337,0,33.78049850463867,2.9213600158691406,33.749000549316406,2.937429904937744
DAUO,3000,45,13,130,0,31,310,0,33.52750015258789,6.761940002441406,33.5099983215332,6.786670207977295
DAUZ,3000,45,05,47,0,23,227,0,28.04509925842285,9.635109901428223,28.063600540161133,9.657400131225586
DBBB,2400,45,06,53,38,24,233,0,6.350709915161133,2.3756699562072754,6.363739967346191,2.3930299282073975
DFFD,3000,45,04,33,0,22,213,0,12.341699600219727,-1.5199700593948364,12.364439964294434,-1.50478994846344
DFOO,3300,45,06,53,0,24,233,0,11.151100158691406,-4.342909812927246,11.168999671936035,-4.319029808044434
DGAA,3403,61,03,22,0,21,202,411,5.5909600257873535,-0.1726360023021698,5.619410037994385,-0.16093599796295166
DGSI,1982,45,02,12,0,20,192,0,6.705780029296875,-1.5926100015640259,6.723340034484863,-1.5890300273895264
DIAP,3000,50,03,23,0,21,203,0,5.248849868774414,-3.9314498901367188,5.273920059204102,-3.92113995552063
DIBK,3300,45,03,24,0,21,204,0,7.725200176239014,-5.079800128936768,7.752399921417236,-5.067530155181885
DIYO,3000,45,05,42,0,23,222,0,6.893020153045654,-5.374750137329102,6.9133100509643555,-5.356410026550293
DN53,2625,31,05,46,0,23,226,0,10.590700149536133,7.440110206604004,10.607199668884277,7.457300186157227
DNAA,3609,60,04,35,0,22,215,0,8.993439674377441,7.253739833831787,9.020139694213867,7.272610187530518
DNAS,3400,58,11,-1,0,29,-1,0,-1.0,-1.0,-1.0,-1.0
DNBE,2399,45,05,46,0,23,226,0,6.309010028839111,5.591239929199219,6.324150085449219,5.606770038604736
DNCA,2451,45,03,27,0,21,207,0,4.966169834136963,8.342289924621582,4.9859299659729,8.352299690246582
DNEN,2402,45,08,80,0,26,260,0,6.472189903259277,7.550909996032715,6.475910186767578,7.572299957275391
DNIB,2400,45,05,40,0,23,220,0,7.354129791259766,3.971329927444458,7.3707098960876465,3.9853599071502686
DNIL,3100,60,05,49,0,23,229,0,8.430970191955566,4.483310222625732,8.449259757995605,4.504630088806152
DNJO,3001,45,10,95,0,28,275,0,9.641059875488281,8.855469703674316,9.638589859008789,8.882699966430664
DNKA,3000,60,05,50,0,23,230,0,10.687100410461426,7.309679985046387,10.70460033416748,7.3306097984313965
DNKN,2451,45,05,44,150,23,224,0,12.038900375366211,8.521869659423828,12.05459976196289,8.537690162658691
DNKN,3301,60,06,61,0,24,241,0,12.041600227355957,8.5066499710083,12.055999755859375,8.53320026397705
DNMA,3001,60,05,47,0,23,227,0,11.84589958190918,13.07129955291748,11.864500045776367,13.091300010681152
DNMM,2742,45,18L,180,0,36R,360,0,6.597010135650635,3.3291399478912354,6.57220983505249,3.3291399478912354
DNMM,3900,60,18R,180,0,36L,360,0,6.587779998779297,3.3135600090026855,6.552519798278809,3.3135600090026855
DNPO,3001,60,03,28,0,21,208,0,5.003499984741211,6.943120002746582,5.02741003036499,6.955930233001709
DNSO,3000,60,08,77,0,26,257,0,12.912799835205078,5.193439960479736,12.918999671936035,5.2203497886657715
DNYO,2999,45,17,171,0,35,351,0,9.271050453186035,12.428199768066406,9.24431037902832,12.432700157165527
DRRN,3000,45,09R,87,0,27L,267,0,13.481611,2.169414,13.483231,2.204498
DTKA,2870,45,09,93,0,27,273,0,36.981201171875,8.859189987182617,36.979801177978516,8.891420364379883
DTMB,2950,45,07,74,0,25,254,0,35.75410079956055,10.73840045928955,35.761600494384766,10.769599914550781
DTNH,3300,60,09,90,0,27,270,0,36.075801849365234,10.420299530029297,36.075599670410156,10.456899642944336
DTTA,3200,45,01,12,0,19,192,0,36.8390998840332,10.223799705505371,36.8671989440918,10.231399536132812
DTTA,2840,45,11,112,0,29,292,200,36.85430145263672,10.217700004577637,36.844398498535156,10.247200012207031
DTTF,2900,45,05,48,0,23,228,0,34.41350173950195,8.810759544372559,34.43069839477539,8.834269523620605
DTTJ,3100,45,09,88,0,27,268,0,33.875,10.76039981842041,33.87590026855469,10.793899536132812
DTTX,3000,45,15,148,0,33,328,0,34.72949981689453,10.682299613952637,34.70640182495117,10.699700355529785
DTTZ,3225,45,09,89,0,27,269,0,33.93960189819336,8.083680152893066,33.93960189819336,8.118439674377441
DXNG,2500,45,03,22,0,21,202,0,9.756830215454102,1.0870000123977661,9.777830123901367,1.0954999923706055
DXXX,3001,45,04,39,0,22,219,0,6.155129909515381,1.2456899881362915,6.176340103149414,1.2625999450683594
EBBE,3074,45,04L,39,639,22R,219,642,50.74720001220703,4.753170013427734,50.76850128173828,4.780829906463623
EBBL,3096,45,05L,50,331,23R,230,344,51.15950012207031,5.453020095825195,51.177398681640625,5.486959934234619
EBBR,2987,50,01,14,46,19,194,174,50.88690185546875,4.491419792175293,50.912899017333984,4.502019882202148
EBBR,3638,45,07L,65,258,25R,245,300,50.89889907836914,4.455659866333008,50.912601470947266,4.502630233764648
EBBR,3211,45,07R,70,122,25L,250,0,50.888999938964844,4.480420112609863,50.89889907836914,4.5233001708984375
EBCI,3055,45,06,66,450,24,246,0,50.45517,4.436707,50.466557,4.475922
EBCV,2498,45,08,80,0,26,260,0,50.574798583984375,3.8213601112365723,50.57870101928711,3.856100082397461
EBFN,2678,50,11,108,465,29,288,95,51.09400177001953,2.6347999572753906,51.08649826049805,2.671070098876953
EBFS,3385,45,08L,79,299,26R,259,296,50.240699768066406,4.626049995422363,50.246498107910156,4.672609806060791
EBKT,1900,45,06,62,0,24,242,116,50.81480026245117,3.1971399784088135,50.8224983215332,3.220180034637451
EBLG,2340,45,04L,45,0,22R,225,0,50.63130187988281,5.430140018463135,50.64609909057617,5.453619956970215
EBLG,3690,45,04R,45,236,22L,225,0,50.62710189819336,5.427919864654541,50.648101806640625,5.460830211639404
EBOS,3200,45,08,75,300,26,256,415,51.19660186767578,2.8527700901031494,51.203399658203125,2.8972699642181396
EDAB,2200,50,07,73,0,25,253,0,51.19070053100586,14.50469970703125,51.1963996887207,14.534799575805664
EDAC,2235,45,04,41,260,22,221,300,50.9742431640625,12.496472358703613,50.991127014160156,12.518527030944824
EDAH,2305,35,10,106,0,28,286,0,53.88159942626953,14.134499549865723,53.8760986328125,14.168299674987793
EDAV,2520,50,10,100,0,28,280,0,52.8291015625,13.675100326538086,52.825199127197266,13.711899757385254
EDAX,2380,50,07,76,300,25,256,300,53.3036003112793,12.735899925231934,53.309200286865234,12.770400047302246
EDBN,2293,45,09,89,0,27,269,0,53.601890563964844,13.288762092590332,53.60256576538086,13.323356628417969
EDBR,2500,45,18,179,0,36,359,0,51.3744010925293,14.949799537658691,51.351898193359375,14.950200080871582
EDDB,3600,45,07L,69,0,25R,249,0,52.36669921875,13.480899810791016,52.377498626708984,13.526200294494629
EDDB,4000,60,07R,69,0,25L,249,0,52.345402,13.4684,52.358398,13.5232
EDDC,2850,60,04,41,0,22,221,302,51.124664306640625,13.754674911499023,51.141990661621094,13.778521537780762
EDDE,2600,50,09,98,0,27,278,210,50.981277,10.939734,50.978344,10.976471
EDDF,4000,60,07C,70,0,25C,250,0,50.03260040283203,8.534629821777344,50.045101165771484,8.586979866027832
EDDF,2800,45,07L,70,0,25R,250,0,50.03710174560547,8.497079849243164,50.045799255371094,8.533720016479492
EDDF,4000,45,07R,70,0,25L,250,0,50.02750015258789,8.534170150756836,50.04010009765625,8.586529731750488
EDDF,4000,45,18,180,0,36,360,0,50.034401,8.52593,49.9984,8.52608
EDDG,2170,45,07,71,0,25,251,200,52.131500244140625,7.670060157775879,52.137901306152344,7.700019836425781
EDDH,3250,46,05,50,298,23,230,156,53.61830139160156,9.963709831237793,53.63710021972656,10.001799583435059
EDDH,3666,46,15,153,0,33,333,446,53.65439987182617,9.975210189819336,53.625099182128906,10.000499725341797
EDDK,2459,45,06,64,0,24,244,0,50.86009979248047,7.123779773712158,50.86970138549805,7.155270099639893
EDDK,3815,60,14L,138,0,32R,318,0,50.88050079345703,7.129079818725586,50.855201721191406,7.165689945220947
EDDK,1863,45,14R,138,0,32L,318,0,50.87080001831055,7.1208600997924805,50.85850143432617,7.138740062713623
EDDL,2700,45,05L,53,300,23R,233,300,51.28369903564453,6.748720169067383,51.29840087890625,6.7796502113342285
EDDL,3000,45,05R,53,300,23L,233,300,51.279598236083984,6.751989841461182,51.2958984375,6.786220073699951
EDDM,4000,60,08L,83,0,26R,263,0,48.36280059814453,11.767600059509277,48.36690139770508,11.821200370788574
EDDM,4000,60,08R,83,0,26L,263,0,48.3406982421875,11.75100040435791,48.34479904174805,11.80459976196289
EDDN,2700,45,10,99,0,28,279,0,49.5004997253418,11.059200286865234,49.49689865112305,11.095999717712402
EDDP,3600,45,08L,86,0,26R,266,0,51.43119812011719,12.215800285339355,51.43360137939453,12.267399787902832
EDDP,3600,60,08R,86,0,26L,266,0,51.4116096496582,12.2046480178833,51.41402053833008,12.256247520446777
EDDR,2000,45,09,87,26,27,267,0,49.21419906616211,7.096680164337158,49.21500015258789,7.123720169067383
EDDS,3345,45,07,72,300,25,252,0,48.685699462890625,9.200130462646484,48.694000244140625,9.243800163269043
EDDV,3800,45,09L,93,300,27R,273,300,52.46839904785156,9.648289680480957,52.466800689697266,9.704139709472656
EDDV,2340,45,09R,93,0,27L,273,0,52.45500183105469,9.676770210266113,52.45399856567383,9.711150169372559
EDDW,2040,45,09,88,0,27,268,0,53.046600341796875,8.774450302124023,53.047298431396484,8.804849624633789
EDFH,3800,45,03,32,1055,21,212,300,49.931400299072266,7.246880054473877,49.960201263427734,7.275290012359619
EDHI,2630,45,05,52,104,23,232,754,53.52859878540039,9.821490287780762,53.54330062866211,9.852660179138184
EDHL,2102,60,07,72,300,25,252,0,53.80189895629883,10.701600074768066,53.80777359008789,10.731939315795898
EDJA,2630,45,06,59,290,24,239,290,47.983299255371094,10.225600242614746,47.994300842285156,10.253299713134766
EDLP,2180,45,06,57,0,24,237,0,51.608699798583984,8.603179931640625,51.61940002441406,8.629590034484863
EDLV,2440,45,09,92,0,27,272,0,51.60279846191406,6.124539852142334,51.60210037231445,6.159729957580566
EDLW,2000,45,06,61,300,24,241,300,51.51470184326172,7.601900100708008,51.52349853515625,7.626989841461182
EDMO,2286,45,04,42,0,22,222,0,48.07400131225586,11.273099899291992,48.08919906616211,11.293800354003906
EDNY,2356,45,06,60,270,24,240,206,47.66600036621094,9.49789047241211,47.67660140991211,9.525090217590332
EDOP,3000,55,06,64,0,24,244,0,53.42129898071289,11.762999534606934,53.432701110839844,11.803899765014648
EDOV,1997,52,08,83,0,26,263,0,52.62779998779297,11.805399894714355,52.629798889160156,11.834699630737305
EDRB,3056,45,05,55,300,23,235,250,49.93709945678711,6.546770095825195,49.95289993286133,6.581600189208984
EDRZ,2950,45,03,30,275,21,210,275,49.198001861572266,7.390530109405518,49.22100067138672,7.41077995300293
EDSB,2983,45,03,32,253,21,212,253,48.76789855957031,8.069761276245117,48.79079818725586,8.0912504196167
EDTL,3000,45,03,28,0,21,208,0,48.357398986816406,7.818130016326904,48.381099700927734,7.837319850921631
EDVE,2300,45,08,85,0,26,265,0,52.31840133666992,10.542099952697754,52.32029724121094,10.57568073272705
EDVK,2500,45,09,93,0,27,273,0,51.42179870605469,9.37423038482666,51.4197998046875,9.410079956054688
EDXW,2120,45,14,144,0,32,324,0,54.9193000793457,8.332880020141602,54.903900146484375,8.352089881896973
EEEI,2000,45,07,71,0,25,251,0,59.257301330566406,24.1919002532959,59.263301849365234,24.225099563598633
EETN,3480,45,08,90,250,26,270,0,59.413338,24.805908,59.413174,24.867208
EETU,1800,31,08,88,0,26,268,0,58.30720520019531,26.671579360961914,58.30759811401367,26.702199935913086
EFET,2001,45,03,35,0,21,215,0,68.3552017211914,23.410499572753906,68.37000274658203,23.438199996948242
EFHA,2601,60,08,86,0,26,266,0,61.85530090332031,24.761999130249023,61.8568000793457,24.81130027770996
EFHK,3060,60,04L,48,0,22R,228,60,60.31290054321289,24.903900146484375,60.33150100708008,24.944700241088867
EFHK,3440,60,04R,48,240,22L,228,0,60.30979919433594,24.93320083618164,60.3306999206543,24.97909927368164
EFHK,2901,60,15,154,0,33,334,0,60.330299377441406,24.964500427246094,60.307098388671875,24.988300323486328
EFIV,2499,45,04,47,0,22,227,0,68.59960174560547,27.38290023803711,68.61489868164062,27.427799224853516
EFJO,2500,52,10,110,0,28,290,0,62.66460037231445,29.597700119018555,62.65679931640625,29.643400192260742
EFJY,2601,60,12,134,0,30,314,0,62.40760040283203,25.66010093688965,62.39139938354492,25.696399688720703
EFKA,2700,60,17,177,0,35,357,0,63.139198303222656,23.049999237060547,63.1150016784668,23.052900314331055
EFKE,2503,48,18,188,0,36,8,0,65.79299926757812,24.586000442504883,65.77079772949219,24.578899383544922
EFKI,2499,48,07,80,0,25,260,0,64.28340148925781,27.66699981689453,64.2874984741211,27.71780014038086
EFKK,2500,60,01,11,0,19,191,0,63.707801818847656,23.138200759887695,63.72990036010742,23.147499084472656
EFKS,2500,45,12,132,40,30,312,0,65.99479675292969,29.21969985961914,65.9800033569336,29.259899139404297
EFKT,2500,45,16,166,0,34,346,0,67.71189880371094,24.839799880981445,67.69010162353516,24.853900909423828
EFKU,2800,60,15,157,0,33,337,0,63.01810073852539,27.787599563598633,62.99489974975586,27.809099197387695
EFLP,2500,60,06,67,0,24,247,0,61.04010009765625,28.12310028076172,61.04899978637695,28.165700912475586
EFMA,1903,60,03,23,0,21,203,0,60.11439895629883,19.891399383544922,60.130001068115234,19.90489959716797
EFOU,2501,60,12,121,0,30,301,0,64.93579864501953,25.331899642944336,64.92430114746094,25.377199172973633
EFPO,2351,60,12,126,95,30,306,345,61.468101501464844,21.781299591064453,61.4557991027832,21.817100524902344
EFRO,3002,60,03,37,0,21,217,0,66.5541000366211,25.809999465942383,66.57550048828125,25.850900650024414
EFSA,2300,45,12,126,0,30,306,0,61.949100494384766,28.92729949951172,61.9370002746582,28.962900161743164
EFSI,2000,45,14,136,0,32,316,0,62.697113037109375,22.8218936920166,62.68416976928711,22.84892463684082
EFTP,2700,45,06,64,0,24,244,0,61.40890121459961,23.581600189208984,61.41939926147461,23.627199172973633
EFTU,2500,60,08,85,0,26,265,0,60.513099670410156,22.240100860595703,60.515098571777344,22.285499572753906
EFUT,2000,45,07,78,0,25,258,0,60.894500732421875,26.920299530029297,60.89830017089844,26.95639991760254
EFVA,2660,48,16,163,0,34,343,160,63.06209945678711,21.754499435424805,63.03919982910156,21.769899368286133
EFVR,2000,45,14,142,0,32,322,0,62.180301666259766,27.85409927368164,62.16630172729492,27.877899169921875
EGAA,2780,45,07,65,0,25,245,0,54.65230178833008,-6.2352399826049805,54.66279983520508,-6.1961798667907715
EGAA,1891,45,17,162,160,35,342,153,54.657901763916016,-6.2286200523376465,54.642601013183594,-6.219989776611328
EGAC,1829,45,04,35,92,22,215,0,54.61140060424805,-5.880720138549805,54.624900817871094,-5.864429950714111
EGAE,1969,45,08,73,85,26,253,0,55.040401458740234,-7.175049781799316,55.04520034790039,-7.147329807281494
EGBB,3052,45,15,148,326,33,328,301,52.465599060058594,-1.7611099481582642,52.4463996887207,-1.7397199869155884
EGBE,1825,46,05,47,0,23,227,128,52.36439895629883,-1.4892799854278564,52.3754997253418,-1.4695700407028198
EGBP,2009,45,08,80,171,26,260,265,51.66659927368164,-2.071079969406128,51.66960144042969,-2.0424299240112305
EGCC,3048,45,05L,51,427,23R,231,183,53.34510040283203,-2.2927401065826416,53.36240005493164,-2.2571399211883545
EGCC,3050,45,05R,51,184,23L,231,184,53.332000732421875,-2.310659885406494,53.349098205566406,-2.2749900817871094
EGCD,2292,46,07,67,231,25,247,621,53.333900451660156,-2.1649999618530273,53.34189987182617,-2.1333301067352295
EGCN,2894,60,02,18,218,20,198,86,53.462398529052734,-1.0111500024795532,53.487098693847656,-0.9977390170097351
EGDC,1833,46,10,90,0,28,270,0,51.087100982666016,-4.163509845733643,51.08720016479492,-4.137350082397461
EGDL,2386,45,06,60,0,24,240,185,51.502201080322266,-2.0110199451446533,51.51279830932617,-1.98117995262146
EGDL,1826,45,18,175,0,36,355,0,51.51150131225586,-1.9899499416351318,51.49509811401367,-1.987630009651184
EGDM,3212,46,05,50,0,23,230,0,51.144100189208984,-1.7686100006103516,51.1619987487793,-1.7345199584960938
EGDR,1831,46,11,113,0,29,293,0,50.088600158691406,-5.2659101486206055,50.08219909667969,-5.242350101470947
EGDX,1828,43,07,73,0,25,253,0,51.402801513671875,-3.446010112762451,51.40760040283203,-3.420919895172119
EGDY,2310,46,08,83,0,26,263,23,51.00699996948242,-2.661720037460327,51.009498596191406,-2.629040002822876
EGFF,2354,45,12,117,243,30,297,168,51.4015007019043,-3.358680009841919,51.39179992675781,-3.3279900550842285
EGGD,2011,45,09,86,0,27,266,135,51.38209915161133,-2.7335000038146973,51.383201599121094,-2.704669952392578
EGGP,2285,46,09,86,61,27,266,0,53.33290100097656,-2.8660199642181396,53.33440017700195,-2.8326900005340576
EGGW,2162,46,07,74,0,25,254,85,51.87200164794922,-0.3835499882698059,51.877201080322266,-0.3533329963684082
EGHH,2271,46,08,75,422,26,255,0,50.77750015258789,-1.8579299449920654,50.78269958496094,-1.8267899751663208
EGHQ,2745,87,12,121,0,30,301,0,50.446998596191406,-5.012030124664307,50.43450164794922,-4.978759765625
EGKB,1802,45,03,26,241,21,206,0,51.32360076904297,0.027056999504566193,51.33829879760742,0.03804999962449074
EGKK,2565,45,08L,78,321,26R,258,416,51.14690017700195,-0.212568998336792,51.151798248291016,-0.176814004778862
EGKK,3316,45,08R,78,393,26L,258,268,51.14509963989258,-0.21231399476528168,51.15119934082031,-0.16819199919700623
EGLF,2440,45,06,62,540,24,242,637,51.270599365234375,-0.7920439839363098,51.280799865722656,-0.7611619830131531
EGLJ,1801,46,13,124,52,31,304,0,-1.0,-1.0,-1.0,-1.0
EGLL,3901,50,09L,90,307,27R,270,0,51.477500915527344,-0.48942801356315613,51.477699279785156,-0.43326398730278015
EGLL,3658,45,09R,90,309,27L,270,0,51.464900970458984,-0.48677200078964233,51.46500015258789,-0.4340749979019165
EGMC,1856,36,05,54,174,23,234,146,51.56719970703125,0.6862679719924927,51.575599670410156,0.7049959897994995
EGMH,2752,61,10,101,0,28,281,0,51.344600677490234,1.3268300294876099,51.339698791503906,1.3655600547790527
EGNH,1869,46,10,95,0,28,275,0,53.77220153808594,-3.0426900386810303,53.77090072631836,-3.0144400596618652
EGNJ,2196,45,02,22,0,20,202,246,53.56529998779297,-0.35705798864364624,53.58359909057617,-0.34444400668144226
EGNM,2250,46,14,138,292,32,318,293,53.8734016418457,-1.672070026397705,53.8583984375,-1.6490700244903564
EGNO,2422,46,07,71,64,25,251,0,53.74140167236328,-2.901279926300049,53.7484016418457,-2.8665099143981934
EGNR,2043,45,04,41,300,22,221,300,53.171199798583984,-2.987639904022217,53.185001373291016,-2.967629909515381
EGNS,1753,46,08,78,290,26,258,140,54.08169937133789,-4.636940002441406,54.08470153808594,-4.611110210418701
EGNT,2329,46,07,65,120,25,245,136,55.03350067138672,-1.706339955329895,55.042301177978516,-1.6732699871063232
EGNV,2291,45,05,48,0,23,228,0,54.502201080322266,-1.442430019378662,54.51620101928711,-1.4163800477981567
EGNX,2893,45,09,88,180,27,268,130,52.83060073852539,-1.3495700359344482,52.83140182495117,-1.3066699504852295
EGOD,2286,46,17,170,95,35,350,0,52.81529998779297,-4.130280017852783,52.79499816894531,-4.124259948730469
EGOS,1834,46,18,180,0,36,360,0,52.80179977416992,-2.6679799556732178,52.785400390625,-2.6679298877716064
EGOV,2290,46,13,131,0,31,311,0,53.25379943847656,-4.546199798583984,53.240501403808594,-4.520249843597412
EGPC,1825,45,13,127,250,31,307,310,58.46369934082031,-3.1054699420928955,58.453800201416016,-3.080430030822754
EGPD,1953,46,16,158,0,34,338,0,57.20949935913086,-2.2034099102020264,57.19430160522461,-2.19215989112854
EGPE,1887,46,05,49,66,23,229,0,57.5369987487793,-4.059510231018066,57.54800033569336,-4.03557014465332
EGPF,2665,46,05,46,0,23,226,299,55.86349868774414,-4.449059963226318,55.87990188598633,-4.418310165405273
EGPH,2556,46,06,59,213,24,239,213,55.944000244140625,-3.3901400566101074,55.95589828491211,-3.35506010055542
EGPK,1905,45,03,24,0,21,204,0,55.488399505615234,-4.587409973144531,55.50339889526367,-4.5757598876953125
EGPK,2986,46,12,121,244,30,301,0,55.51639938354492,-4.614759922027588,55.50239944458008,-4.574480056762695
EGPL,1836,46,06,55,120,24,235,0,57.47639846801758,-7.375279903411865,57.485801696777344,-7.350069999694824
EGPO,2200,46,18,174,120,36,354,0,58.225399017333984,-6.332940101623535,58.2057991027832,-6.32919979095459
EGQK,2311,46,07,71,0,25,251,0,57.645999908447266,-3.578819990158081,57.65290069580078,-3.5423800945281982
EGQL,2588,46,08,82,270,26,262,0,56.37300109863281,-2.8817100524902344,56.376399993896484,-2.840250015258789
EGQS,2771,46,05,44,0,23,224,93,57.698001861572266,-3.3534200191497803,57.715999603271484,-3.321310043334961
EGQS,1849,46,10,96,98,28,276,0,57.707298278808594,-3.3438398838043213,57.70539855957031,-3.3130099773406982
EGSC,1965,46,05,50,230,23,230,145,52.19929885864258,0.16405799984931946,52.21070098876953,0.18601399660110474
EGSH,1841,45,09,90,0,27,270,0,52.6758,1.26905,52.675999,1.29627
EGSS,3049,46,04,44,0,22,224,0,51.875099182128906,0.21992500126361847,51.895198822021484,0.25004398822784424
EGTC,1799,46,03,32,205,21,212,0,52.06520080566406,-0.6235979795455933,52.07899856567383,-0.6097970008850098
EGTD,1880,45,07,-1,0,25,-1,0,-1.0,-1.0,-1.0,-1.0
EGTE,2083,46,08,76,10,26,256,36,50.731998443603516,-3.4281399250030518,50.73649978637695,-3.3994998931884766
EGTG,2467,91,09,92,175,27,272,315,51.51940155029297,-2.608020067214966,51.51940155029297,-2.57246994972229
EGUB,1823,46,01,8,0,19,188,0,51.60689926147461,-1.0976500511169434,51.62310028076172,-1.0940699577331543
EGUL,2743,46,06,56,0,24,236,0,52.40250015258789,0.5443829894065857,52.41640090942383,0.5776469707489014
EGUN,2811,61,10,103,0,28,283,0,52.36429977416992,0.46799999475479126,52.358699798583984,0.508167028427124
EGUW,2424,46,05,48,140,23,228,0,52.120601654052734,0.9437999725341797,52.134300231933594,0.9685310125350952
EGVA,3046,61,09,88,0,27,268,0,51.68299865722656,-1.812000036239624,51.683998107910156,-1.7680000066757202
EGVN,3050,56,07,74,0,25,254,0,51.74610137939453,-1.6041300296783447,51.75389862060547,-1.5617899894714355
EGVO,1838,43,09,93,1,27,273,0,51.234500885009766,-0.9558860063552856,51.23379898071289,-0.9296280145645142
EGXC,2744,61,07,72,0,25,252,0,53.089298248291016,-0.18556399643421173,53.09700012207031,-0.14669199287891388
EGXD,1858,46,15,151,142,33,331,96,54.144100189208984,-1.4269200563430786,54.129398345947266,-1.4128999710083008
EGXE,2292,46,16,156,0,34,336,0,54.30189895629883,-1.5426100492477417,54.283199310302734,-1.5281800031661987
EGXG,1877,46,06,55,166,24,235,0,53.8296012878418,-1.2072399854660034,53.839298248291016,-1.1839699745178223
EGXH,2747,61,09,81,0,27,261,0,52.340999603271484,0.7531110048294067,52.34469985961914,0.7929059863090515
EGXJ,2744,60,04,41,0,22,221,0,52.72650146484375,-0.662132978439331,52.744998931884766,-0.6353060007095337
EGXP,2740,61,04,41,0,22,221,0,53.29869842529297,-0.5643529891967773,53.31719970703125,-0.5373079776763916
EGXT,2759,61,07,74,0,25,254,0,52.609500885009766,-0.49549999833106995,52.61669921875,-0.4566670060157776
EGXU,1835,46,03,32,152,21,212,0,54.04240036010742,-1.2604199647903442,54.056400299072266,-1.2457599639892578
EGXW,2743,61,02,22,0,20,202,0,53.154701232910156,-0.5314810276031494,53.1776008605957,-0.5163310170173645
EGXZ,1813,45,02,22,380,20,202,0,54.19770050048828,-1.3870600461959839,54.213199615478516,-1.3764699697494507
EGYD,2082,45,08,83,0,26,263,0,53.02870178222656,-0.5057029724121094,53.030799865722656,-0.47874200344085693
EGYM,1855,91,01,9,0,19,189,0,52.639198303222656,0.5557309985160828,52.65489959716797,0.5596780180931091
EGYM,2786,61,06,55,0,24,235,0,52.64120101928711,0.5335360169410706,52.65530014038086,0.5674030184745789
EGYP,2590,46,10,105,0,28,285,0,-51.81769943237305,-58.47629928588867,-51.82389831542969,-58.439998626708984
EHAM,2020,45,04,41,0,22,221,0,52.30039978027344,4.783480167388916,52.31399917602539,4.803020000457764
EHAM,3439,45,06,58,250,24,238,0,52.287899017333984,4.734020233154297,52.30459976196289,4.777520179748535
EHAM,3453,45,09,87,90,27,267,0,52.31660079956055,4.746349811553955,52.31840133666992,4.796889781951904
EHAM,3300,45,18C,183,0,36C,3,450,52.33140182495117,4.740029811859131,52.30179977416992,4.737500190734863
EHAM,3400,45,18L,183,575,36R,3,0,52.3213005065918,4.7799601554870605,52.29079818725586,4.777349948883057
EHAM,3800,60,18R,183,270,36L,3,0,52.362701416015625,4.711929798126221,52.3286018371582,4.7088398933410645
EHBK,2750,45,03,30,250,21,205,250,50.901798248291016,5.760049819946289,50.920799255371094,5.779230117797852
EHEH,3000,45,03,31,250,21,213,250,51.4390983581543,5.362130165100098,51.46120071411133,5.386889934539795
EHGG,2500,45,05,52,0,23,232,0,53.1150016784668,6.569129943847656,53.125,6.590270042419434
EHGR,2768,45,10,98,130,28,279,101,51.56949996948242,4.911980152130127,51.56520080566406,4.951449871063232
EHLE,2700,45,05,46,0,23,225,0,52.45109939575195,5.511020183563232,52.45869827270508,5.524590015411377
EHLW,2452,50,05,53,258,23,233,321,53.219200134277344,5.73783016204834,53.231300354003906,5.767330169677734
EHLW,2000,50,09,88,59,27,268,0,53.22869873046875,5.7396697998046875,53.22850036621094,5.769670009613037
EHRD,2200,45,06,56,200,24,235,200,51.95209884643555,4.428239822387695,51.962799072265625,4.455080032348633
EHSB,3075,45,09,91,454,27,271,489,52.127498626708984,5.253950119018555,52.12689971923828,5.299019813537598
EHTW,2987,45,05,56,285,23,236,296,52.2681999206543,6.871230125427246,52.28350067138672,6.907110214233398
EHVB,2440,45,05,52,0,23,232,0,52.1593017578125,4.4039998054504395,52.17300033569336,4.432000160217285
EHVK,3024,46,06L,56,135,24R,235,135,51.650001525878906,5.68927001953125,51.664398193359375,5.726369857788086
EHWO,2443,45,07,67,0,25,248,0,51.4452018737793,4.325669765472412,51.45280075073242,4.358500003814697
EICK,2133,45,16,160,0,34,340,0,51.85029983520508,-8.496439933776855,51.832298278808594,-8.485790252685547
EIDW,3110,45,10L,97,0,28R,278,0,53.43716,-6.28062,53.4352,-6.24496
EIDW,2637,45,10R,95,0,28L,275,0,53.42243,-6.29007,53.4203,-6.25058
EIDW,2072,45,16,157,0,34,337,0,53.437,-6.26198,53.419899,-6.24959
EIKN,2300,45,08,79,153,26,259,0,53.90829849243164,-8.835650444030762,53.91230010986328,-8.801329612731934
EIKY,2000,45,08,71,0,26,251,0,52.178001403808594,-9.537630081176758,52.183799743652344,-9.509940147399902
EIME,1829,46,10,108,0,28,288,183,53.3046875,-6.468820095062256,53.3016242980957,-6.4446330070495605
EINN,3199,45,06,52,0,24,232,140,52.693199157714844,-8.943519592285156,52.71080017089844,-8.906100273132324
EKAH,2702,45,10R,100,0,28L,280,0,56.30550003051758,10.597599983215332,56.30120086669922,10.64050006866455
EKBI,3100,45,09,87,150,27,267,150,55.73970031738281,9.132439613342285,55.7411994934082,9.18176555633545
EKCH,3600,45,04L,41,0,22R,221,600,55.592201232910156,12.603500366210938,55.61650085449219,12.641200065612793
EKCH,3300,45,04R,41,0,22L,221,0,55.60309982299805,12.633000373840332,55.62540054321289,12.66759967803955
EKCH,3070,45,12,123,705,30,303,270,55.627601623535156,12.62969970703125,55.61249923706055,12.670499801635742
EKEB,2599,45,08,79,0,26,259,0,55.523799896240234,8.533490180969238,55.528099060058594,8.573949813842773
EKKA,2928,46,09R,89,0,27L,269,0,56.29710006713867,9.077329635620117,56.29750061035156,9.124629974365234
EKOD,1845,45,06,60,0,24,240,0,55.471500396728516,10.315299987792969,55.479801177978516,10.340499877929688
EKRN,2002,45,11,114,0,29,294,0,55.066898345947266,14.745200157165527,55.059600830078125,14.773900032043457
EKSP,3006,46,10L,105,0,28R,285,0,55.22460174560547,9.243940353393555,55.21739959716797,9.289480209350586
EKYT,2654,45,08L,83,0,26R,263,0,57.09370040893555,9.833379745483398,57.096500396728516,9.876870155334473
ELLX,4002,45,06,57,0,24,238,0,49.617698669433594,6.187459945678711,49.635501861572266,6.235559940338135
ENAL,2314,45,06,65,149,24,245,230,62.555923,6.08984,62.564819,6.130524
ENAN,2468,45,14,150,0,32,330,0,69.30699920654297,16.119800567626953,69.28790283203125,16.15130043029785
ENAT,2184,45,11,121,205,29,301,127,69.9823989868164,23.340999603271484,69.97229766845703,23.38990020751953
ENBO,3394,45,07,78,600,25,258,0,67.26529693603516,14.318300247192383,67.27169799804688,14.3951997756958
ENBR,2990,45,17,170,270,35,350,271,60.30659866333008,5.213699817657471,60.28010177612305,5.2225799560546875
ENCN,2030,45,03,35,120,21,215,190,58.19670104980469,8.075409889221191,58.211700439453125,8.095270156860352
ENDU,2443,45,10,109,573,28,289,0,69.05950164794922,18.510000228881836,69.05239868164062,18.567800521850586
ENEV,2815,45,17,178,92,35,358,65,68.50389862060547,16.676700592041016,68.47869873046875,16.67959976196289
ENFG,2049,45,15,149,146,33,329,63,61.01919937133789,9.283570289611816,61.00339889526367,9.30282974243164
ENGM,3600,45,01L,16,0,19R,196,0,60.185001373291016,11.073699951171875,60.21609878540039,11.091699600219727
ENGM,2950,45,01R,16,0,19L,196,0,60.17580032348633,11.107799530029297,60.20119857788086,11.1225004196167
ENHD,2120,45,13,134,60,31,314,60,59.35070037841797,5.197539806365967,59.337398529052734,5.2241997718811035
ENKB,2390,45,07,72,60,25,252,80,63.1092,7.80675,63.114601,7.84231
ENKR,2115,45,05,69,56,23,249,442,69.72248077392578,29.868345260620117,69.72760772705078,29.906959533691406
ENLI,2990,45,14,131,273,32,311,273,58.10850143432617,6.606919765472412,58.09090042114258,6.645120143890381
ENML,2110,45,07,71,0,25,251,0,62.742698669433594,7.249300003051758,62.74850082397461,7.285940170288086
ENNA,2788,45,16,176,92,34,356,92,70.0811996459961,24.970600128173828,70.056396484375,24.97640037536621
ENNO,1751,45,12,127,632,30,307,0,59.56949996948242,9.202059745788574,59.5619010925293,9.22173023223877
ENOL,2714,45,15,154,0,33,334,0,63.70989990234375,9.59199047088623,63.6879997253418,9.616009712219238
ENRY,2442,45,12,117,0,30,297,0,59.38370132446289,10.766200065612793,59.3739013671875,10.80459976196289
ENSB,2319,45,10,105,61,28,285,120,78.2488021850586,15.418000221252441,78.24330139160156,15.516300201416016
ENTC,2392,45,18,193,392,36,13,0,69.6937026977539,18.925899505615234,69.67289733886719,18.91189956665039
ENTO,2949,45,18,179,375,36,359,375,59.20009994506836,10.258299827575684,59.17319869995117,10.258899688720703
ENVA,2759,45,09,90,253,27,270,140,63.457698822021484,10.889399528503418,63.45759963989258,10.946499824523926
ENY,3000,61,17,-1,0,35,-1,0,-1.0,-1.0,-1.0,-1.0
ENZV,2449,45,10,106,100,28,286,153,58.881802,5.60479,58.875599,5.64559
ENZV,2856,60,18,179,150,36,359,150,58.89500045776367,5.637290000915527,58.86940002441406,5.638050079345703
EPBY,2500,60,08,82,0,26,262,0,53.09519958496094,17.959199905395508,53.0984001159668,17.996200561523438
EPDE,2500,60,12,121,0,30,301,0,51.55690002441406,21.87809944152832,51.54560089111328,21.90920066833496
EPGD,2800,45,11,113,0,29,293,0,54.381099700927734,18.45199966430664,54.371299743652344,18.49169921875
EPKK,2550,60,07,78,0,25,258,239,50.075401306152344,19.76810073852539,50.0802001953125,19.802900314331055
EPKS,2500,60,12,118,0,30,298,0,52.33700180053711,16.950199127197266,52.326499938964844,16.98270034790039
EPKT,3200,45,08,90,0,26,270,319,50.476101,19.059601,50.476002,19.104601
EPLB,2520,45,07,72,0,25,252,0,51.23759841918945,22.69580078125,51.242698669433594,22.73110008239746
EPLK,3288,58,10,108,0,28,288,0,51.5536,19.1616,51.546799,19.195999
EPLL,2500,45,07L,71,295,25R,251,311,51.71620178222656,19.37220001220703,51.72370147705078,19.406299591064453
EPLY,2488,55,10,-1,0,28,-1,0,-1.0,-1.0,-1.0,-1.0
EPMB,2500,60,08,79,0,26,259,0,54.02939987182617,19.156099319458008,54.03369903564453,19.193599700927734
EPMI,2798,42,12,125,0,30,305,0,-1.0,-1.0,-1.0,-1.0
EPML,2492,45,08R,90,188,26L,270,0,50.3223,21.444099,50.322201,21.479099
EPMM,2513,43,09,90,0,27,270,0,52.195499420166016,21.63759994506836,52.19540023803711,21.674299240112305
EPOK,2496,59,13,136,0,31,316,0,54.587799072265625,18.503799438476562,54.57160186767578,18.53059959411621
EPPI,2401,59,03,35,0,21,215,0,53.16059875488281,16.700300216674805,53.178199768066406,16.72100067138672
EPPO,2504,50,10,108,0,28,288,0,52.42490005493164,16.806100845336914,52.4182014465332,16.840999603271484
EPPW,3525,60,10R,107,0,28L,287,0,52.3838005065918,17.82740020751953,52.3744010925293,17.876800537109375
EPRA,2000,62,07,75,0,25,255,0,51.386398,21.197901,51.390999,21.225599
EPRZ,3200,45,09,91,0,27,271,0,50.110198974609375,22.00149917602539,50.10960006713867,22.046300888061523
EPSC,2500,60,13,131,0,31,311,0,53.592098236083984,14.887900352478027,53.57740020751953,14.916500091552734
EPSK,2200,60,09,89,198,27,269,0,54.47829818725586,17.090599060058594,54.479400634765625,17.124399185180664
EPSN,2499,58,11,111,0,29,291,0,53.794700622558594,15.808600425720215,53.786598205566406,15.843899726867676
EPSW,2520,45,07,72,0,25,252,0,-1.0,-1.0,-1.0,-1.0
EPSY,2500,45,01,19,0,19,199,0,53.47119903564453,20.931699752807617,53.48830032348633,20.941299438476562
EPWA,2800,50,11,115,0,29,295,500,52.17150115966797,20.946699142456055,52.1609992980957,20.98390007019043
EPWA,3690,60,15,152,0,33,332,0,52.1786003112793,20.955900192260742,52.14939880371094,20.981399536132812
EPWR,2503,45,11,116,0,29,296,0,51.10879898071289,16.865800857543945,51.0989990234375,16.898000717163086
EPZG,2500,60,06,65,0,24,245,0,52.13370132446289,15.781999588012695,52.1432991027832,15.815099716186523
ESCF,2214,35,01,18,0,19,198,0,58.38669967651367,15.515999794006348,58.405601501464844,15.527899742126465
ESCF,1870,37,08,83,0,26,263,0,58.4015998840332,15.515600204467773,58.40359878540039,15.54740047454834
ESCM,1905,40,03,33,0,21,213,0,59.89310073852539,17.58329963684082,59.90739822387695,17.601900100708008
ESCM,2010,40,08,75,0,26,255,47,59.894798278808594,17.56999969482422,59.89950180053711,17.60460090637207
ESDF,2331,45,01,9,0,19,189,0,56.256900787353516,15.262499809265137,56.2775993347168,15.268199920654297
ESFR,1986,34,18,185,0,36,5,0,58.50699996948242,13.05459976196289,58.489200592041016,13.051899909973145
ESGG,3299,45,03,26,0,21,206,0,57.64950180053711,12.2677001953125,57.67610168457031,12.291899681091309
ESGJ,2203,45,01,18,0,19,198,0,57.748199462890625,14.062999725341797,57.766998291015625,14.07450008392334
ESGL,1990,45,06,62,0,24,242,0,58.461299896240234,13.159299850463867,58.46969985961914,13.189499855041504
ESIA,2277,40,06,63,0,24,243,0,58.50920104980469,14.489700317382812,58.51850128173828,14.524499893188477
ESIB,2264,40,01,5,0,19,185,0,58.4182014465332,12.709699630737305,58.43840026855469,12.712800025939941
ESIB,1933,40,11,112,0,29,292,0,58.433101654052734,12.694700241088867,58.42660140991211,12.7253999710083
ESKM,1814,45,16,161,0,34,341,0,60.965599060058594,14.505999565124512,60.950199127197266,14.516799926757812
ESKN,2878,45,08,83,128,26,263,0,58.78670120239258,16.880399703979492,58.789798736572266,16.929800033569336
ESKN,2039,40,16,162,0,34,342,0,58.80139923095703,16.90410041809082,58.784000396728516,16.91510009765625
ESMK,2215,45,01,7,0,19,187,0,55.911800384521484,14.08329963684082,55.93159866333008,14.087699890136719
ESMQ,2050,45,16,152,0,34,332,0,56.696800231933594,16.27669906616211,56.68050003051758,16.292299270629883
ESMS,2800,45,17,173,0,35,353,0,55.548099517822266,13.373800277709961,55.523101806640625,13.378899574279785
ESMT,2261,40,01,6,0,19,186,0,56.680999755859375,12.81820011138916,56.70119857788086,12.822199821472168
ESMV,2050,40,04,43,0,22,223,0,57.285499572753906,14.12559986114502,57.29890060424805,14.148799896240234
ESMX,2103,45,01,13,0,19,193,0,56.919898986816406,14.724100112915039,56.93830108642578,14.731900215148926
ESNK,2001,45,17,172,0,35,352,0,63.057498931884766,17.765899658203125,63.03969955444336,17.771799087524414
ESNN,2090,45,16,160,150,34,340,140,62.536598205566406,17.437299728393555,62.51890182495117,17.451099395751953
ESNO,2014,45,12,122,0,30,302,0,63.41400146484375,18.971099853515625,63.40449905395508,19.005399703979492
ESNQ,2502,45,03,34,0,21,214,0,67.81269836425781,20.32029914855957,67.831298828125,20.353200912475586
ESNS,2520,45,10,106,0,28,286,0,64.62740325927734,21.05579948425293,64.62210083007812,21.097999572753906
ESNU,2302,45,14,138,0,32,318,60,63.798500061035156,20.26930046081543,63.78310012817383,20.30030059814453
ESNX,2500,45,12,128,0,30,308,0,65.59860229492188,19.256200790405273,65.58470153808594,19.298799514770508
ESNY,2524,40,12,130,0,30,310,69,61.268699645996094,17.080900192260742,61.25429916381836,17.11720085144043
ESOE,3270,45,01,12,0,19,192,0,59.21099853515625,15.03279972076416,59.2338981628418,15.041999816894531
ESOK,2516,45,03,26,0,21,206,0,59.43450164794922,13.327799797058105,59.454898834228516,13.347000122070312
ESOW,2581,50,01,8,400,19,188,0,59.57848358154297,16.629249572753906,59.601173400878906,16.63847541809082
ESPA,3350,45,14,137,0,32,317,0,65.55480194091797,22.097400665283203,65.53269958496094,22.1466007232666
ESPE,2230,35,11,117,0,29,297,0,65.87979888916016,20.12809944152832,65.87079620361328,20.17169952392578
ESSA,3301,45,01L,10,0,19R,190,0,59.637298583984375,17.91320037841797,59.66640090942383,17.923799514770508
ESSA,2500,45,01R,10,0,19L,190,0,59.626399993896484,17.950700759887695,59.64849853515625,17.95870018005371
ESSA,2500,45,08,76,0,26,256,0,59.65840148925781,17.936100006103516,59.66389846801758,17.97920036315918
ESSD,2310,45,14,133,0,32,313,0,60.429100036621094,15.499899864196777,60.41510009765625,15.530799865722656
ESSF,1946,40,12,116,0,30,296,0,57.529598236083984,15.809399604797363,57.52190017700195,15.838500022888184
ESSK,2000,45,18,181,0,36,1,0,60.60210037231445,16.951499938964844,60.58420181274414,16.950899124145508
ESSL,2130,40,11,112,0,29,292,0,58.4099006652832,15.663399696350098,58.4026985168457,15.697099685668945
ESSP,2203,45,09,91,0,27,271,0,58.58610153198242,16.231700897216797,58.58580017089844,16.26959991455078
ESSU,1886,35,18,178,0,36,358,0,59.359501,16.7078,59.342602,16.709
ESSV,2000,45,03,21,0,21,201,0,57.65439987182617,18.340200424194336,57.671199798583984,18.35219955444336
ESTA,1945,40,14,136,0,32,316,0,56.29779815673828,12.844200134277344,56.28519821166992,12.865900039672852
ESTL,2010,40,11L,113,0,29R,293,0,56.0885009765625,13.192399978637695,56.08150100708008,13.222100257873535
ESTL,2270,40,11R,113,225,29L,293,0,56.08729934692383,13.177900314331055,56.07929992675781,13.211400032043457
ESUD,2283,40,15,151,0,33,331,0,64.96990203857422,17.685100555419922,64.95189666748047,17.70829963684082
ESUP,2302,45,11,118,0,29,298,0,67.24952697753906,23.051240921020508,67.23977661132812,23.098180770874023
ETAD,3050,45,05,45,0,23,225,0,49.966800689697266,6.683559894561768,49.98630142211914,6.7134599685668945
ETAR,3200,45,08,83,0,26,263,0,49.43259811401367,7.578829765319824,49.4364013671875,7.62253999710083
ETHB,1832,45,08,78,163,26,258,0,52.2765998840332,9.069089889526367,52.28020095825195,9.095330238342285
ETHC,1831,45,08,81,0,26,261,0,52.589900970458984,10.00879955291748,52.592498779296875,10.035499572753906
ETMN,2439,45,08,78,0,26,258,0,53.76539993286133,8.640390396118164,53.769901275634766,8.676609992980957
ETNG,3051,45,09,91,150,27,271,150,50.96099853515625,6.020040035247803,50.96070098876953,6.063459873199463
ETNL,2500,45,09,98,0,27,278,0,53.919612884521484,12.260268211364746,53.916500091552734,12.298299789428711
ETNN,2439,45,06,67,0,24,247,0,50.826801,6.64222,50.835499,6.674
ETNW,2499,45,08,81,0,26,261,0,52.45634078979492,9.416230201721191,52.45899963378906,9.445699691772461
ETOU,2153,37,07,73,0,25,253,37,50.04710006713867,8.311030387878418,50.0526008605957,8.339839935302734
ETSB,2507,45,03,29,0,21,209,0,50.16400146484375,7.0547099113464355,50.18360137939453,7.071929931640625
ETSI,2940,60,06R,68,0,24L,248,0,48.704498,11.5187,48.714298,11.5558
ETUO,2252,46,09,91,0,27,271,0,51.92300033569336,8.289970397949219,51.92259979248047,8.3226900100708
EVGA,2498,45,18,-1,0,36,-1,0,-1.0,-1.0,-1.0,-1.0
EVLA,2002,40,06,70,0,24,250,0,56.51449966430664,21.08180046081543,56.520599365234375,21.11240005493164
EVRA,3200,45,18,185,0,36,5,0,56.93510055541992,23.973100662231445,56.906436920166016,23.968345642089844
EYKA,3150,45,08,85,340,26,265,240,54.96269989013672,24.059499740600586,54.965152740478516,24.110055923461914
EYPA,2280,45,01,13,0,19,193,0,55.96442413330078,21.090309143066406,55.98176574707031,21.09729766845703
EYPP,2000,40,13,137,0,31,317,0,55.73609924316406,24.450599670410156,55.722801208496094,24.472200393676758
EYSA,3500,45,14L,146,0,32R,326,0,55.906898498535156,23.3794002532959,55.88079833984375,23.410600662231445
EYVI,2515,50,01,22,0,19,202,0,54.62369918823242,25.278499603271484,54.64459991455078,25.293100357055664
FAAB,1848,46,01,347,0,19,167,0,-28.58289909362793,16.536300659179688,-28.567100524902344,16.53030014038086
FABE,2500,60,08,57,0,26,237,0,-32.90340042114258,27.26799964904785,-32.890899658203125,27.290300369262695
FABL,2559,46,02,360,0,20,180,0,-29.105100631713867,26.30229949951172,-29.082000732421875,26.302499771118164
FABL,2195,46,12,102,0,30,282,0,-29.089599609375,26.285400390625,-29.093599319458008,26.3075008392334
FACT,3201,61,01,346,0,19,166,0,-33.987701416015625,18.60890007019043,-33.959800720214844,18.600000381469727
FADN,2440,61,06,36,0,24,216,0,-29.97909927368164,30.943199157714844,-29.96109962463379,30.95789909362793
FAEL,1939,46,11,82,0,29,262,0,-33.03730010986328,27.811599731445312,-33.0348014831543,27.832399368286133
FAGG,2000,45,11,89,0,29,269,0,-34.00590133666992,22.367700576782227,-34.00519943237305,22.389299392700195
FAHS,3991,46,18,164,0,36,344,0,-24.33930015563965,31.046300888061523,-24.374000549316406,31.05739974975586
FAKM,3000,46,02,359,0,20,179,0,-28.82029914855957,24.765199661254883,-28.793100357055664,24.765199661254883
FAKM,2439,45,10,80,0,28,260,0,-28.805099487304688,24.750999450683594,-28.80109977722168,24.775400161743164
FAKN,3100,45,05,34,500,23,214,0,-25.395299911499023,31.096500396728516,-25.372100830078125,31.11370086669922
FALA,3047,45,07,57,0,25,227,70,-25.948299407958984,27.9153995513916,-25.93000030517578,27.9375
FALM,4020,46,10,90,0,28,270,0,-23.15999984741211,29.677000045776367,-23.159799575805664,29.716100692749023
FALW,2341,46,02L,1,0,20R,181,299,-32.97959899902344,18.16200065612793,-32.958499908447266,18.162500381469727
FALW,2344,46,02R,1,0,20L,181,0,-32.979698181152344,18.166000366210938,-32.958900451660156,18.166500091552734
FALW,1991,46,16,136,210,34,316,0,-32.96590042114258,18.153799057006836,-32.97890090942383,18.168500900268555
FAMM,4620,45,04,23,60,22,203,60,-25.81760025024414,25.538999557495117,-25.779199600219727,25.55699920654297
FAOB,2111,40,10,75,0,28,255,0,-34.55950164794922,20.22909927368164,-34.5546989440918,20.251300811767578
FAOB,3115,46,17,145,0,35,325,0,-34.55440139770508,20.25029945373535,-34.57749938964844,20.269500732421875
FAOR,4418,61,03L,14,0,21R,194,0,-26.146299362182617,28.23430061340332,-26.107999801635742,28.246299743652344
FAOR,3400,60,03R,14,0,21L,194,0,-26.16469955444336,28.248199462890625,-26.13520050048828,28.257299423217773
FAPE,1980,46,08,58,0,26,238,0,-33.99300003051758,25.601600646972656,-33.98350143432617,25.61989974975586
FAPP,2320,45,05,38,0,23,218,0,-23.858800888061523,29.44729995727539,-23.842199325561523,29.461299896240234
FAUP,4900,60,17,153,0,35,333,0,-28.379899978637695,21.25200080871582,-28.41939926147461,21.27440071105957
FAWK,3353,45,01,352,0,19,172,0,-25.844100952148438,28.224599838256836,-25.81410026550293,28.219999313354492
FAWK,1920,45,06,44,0,24,224,0,-25.833599090576172,28.218700408935547,-25.821300506591797,28.232099533081055
FBFT,3000,45,13,121,0,31,301,0,-21.15048,27.453283,-21.164515,27.477983
FBSK,4000,45,08,62,0,26,242,0,-24.56170082092285,25.90519905090332,-24.548799514770508,25.93120002746582
FCBB,3300,45,05,50,0,23,230,0,-4.2588210105896,15.241678237915039,-4.239641189575195,15.264463424682617
FCPP,2600,45,17,166,0,35,346,0,-4.804619789123535,11.88379955291748,-4.82742977142334,11.889399528503418
FDMS,2600,45,07,53,0,25,233,0,-26.535999298095703,31.297000885009766,-26.52199935913086,31.31800079345703
FDSK,3600,60,02,-1,0,20,-1,0,-1.0,-1.0,-1.0,-1.0
FEFF,2600,45,17,165,0,35,345,0,4.409830093383789,18.515899658203125,4.387119770050049,18.521699905395508
FGSL,2940,46,04,42,0,22,222,0,3.7454099655151367,8.699910163879395,3.765130043029785,8.717530250549316
FHAW,3054,46,13,117,0,31,297,0,-7.963409900665283,-14.406000137329102,-7.975780010223389,-14.38129997253418
FHSH,1950,45,02,359,100,20,179,315,-1.0,-1.0,-1.0,-1.0
FIMP,3370,45,14,117,330,32,297,0,-20.42329978942871,57.6693000793457,-20.43720054626465,57.698001861572266
FJDG,3659,61,13,122,0,31,302,0,-7.304570198059082,72.39700317382812,-7.321959972381592,72.42520141601562
FKKD,2850,45,12,117,0,30,297,0,4.01186990737915,9.708040237426758,4.000239849090576,9.730979919433594
FKKL,2100,45,13,130,0,31,310,0,10.45740032196045,14.25,10.44540023803711,14.264800071716309
FKKM,2100,45,04,38,0,22,218,0,5.6294097900390625,10.744999885559082,5.644430160522461,10.756600379943848
FKKN,2700,45,02,22,150,20,202,40,7.345990180969238,13.554699897766113,7.368030071258545,13.563699722290039
FKKR,3363,45,09,86,0,27,266,115,9.33489990234375,13.3548002243042,9.33687973022461,13.38539981842041
FKKU,2500,45,15,147,0,33,327,0,5.546410083770752,10.348400115966797,5.527430057525635,10.360699653625488
FKKV,2500,45,17,171,0,35,351,501,6.050419807434082,10.12090015411377,6.028059959411621,10.12440013885498
FKKY,1987,45,03,24,0,21,204,0,3.8278400897979736,11.519800186157227,3.8442299365997314,11.527099609375
FKYS,3400,45,01,10,0,19,190,0,3.7074100971221924,11.550600051879883,3.7376999855041504,11.555899620056152
FL03,1829,53,18,180,0,36,2,0,30.00029945373535,-82.36640167236328,29.983600616455078,-82.36640167236328
FLLI,2292,60,10,94,0,28,274,0,-17.820899963378906,25.80970001220703,-17.82229995727539,25.831199645996094
FLLS,3962,46,10,95,0,28,275,0,-15.32919979095459,28.43429946899414,-15.33240032196045,28.47089958190918
FLND,2515,46,10L,90,0,28R,270,0,-12.997300148010254,28.65399932861328,-12.997599601745605,28.67729949951172
FM43,2503,45,13,127,0,31,307,0,-12.249300003051758,49.244998931884766,-12.262900352478027,49.26340103149414
FMCH,2900,45,02,10,0,20,190,0,-11.546600341796875,43.26959991455078,-11.520700454711914,43.27410125732422
FMEE,3200,45,12,102,121,30,282,0,-20.88599967956543,55.504600524902344,-20.892099380493164,55.534698486328125
FMEE,2670,45,14,116,100,32,296,355,-20.884199142456055,55.50419998168945,-20.895000457763672,55.527198791503906
FMEP,2134,46,15,129,0,33,309,0,-21.316600799560547,55.4193000793457,-21.325199127197266,55.430599212646484
FMMI,3100,45,11,99,0,29,279,0,-18.7947998046875,47.464298248291016,-18.799100875854492,47.49330139160156
FMMT,2200,40,01,354,0,19,174,0,-18.119400024414062,49.393699645996094,-18.099599838256836,49.39139938354492
FMNM,2200,45,14,132,0,32,312,0,-15.660499572753906,46.344200134277344,-15.673800468444824,46.35940170288086
FMNN,2190,45,05,43,0,23,223,0,-13.319299697875977,48.307899475097656,-13.304800033569336,48.32170104980469
FNLU,3716,45,05,47,0,23,227,152,-8.876879692077637,13.213899612426758,-8.854009628295898,13.23840045928955
FNLU,2600,60,07,68,0,25,248,0,-8.855609893798828,13.225700378417969,-8.847000122070312,13.246600151062012
FNMO,2500,45,08,66,0,26,246,0,-15.265800476074219,12.136099815368652,-15.256699562072754,12.157400131225586
FNSA,3400,45,13,130,900,31,310,0,-9.679189682006836,20.420000076293945,-9.69894027709961,20.44379997253418
FNUB,2917,45,10,87,0,28,267,0,-14.925100326538086,13.561400413513184,-14.924400329589844,13.588700294494629
FOGK,1780,45,15,151,0,33,331,0,-1.1775799989700317,12.437399864196777,-1.191640019416809,12.445199966430664
FOGR,2303,45,04,42,0,22,222,0,-0.7120829820632935,10.238800048828125,-0.6966670155525208,10.252699851989746
FOOG,1900,45,03,22,671,21,202,0,-0.7196890115737915,8.751139640808105,-0.7037889957427979,8.757619857788086
FOOL,3000,45,16,154,0,34,334,0,0.4708139896392822,9.406350135803223,0.4464170038700104,9.418149948120117
FOON,3080,45,15,144,0,33,324,0,-1.644950032234192,13.429800033569336,-1.6673599481582642,13.446200370788574
FQBR,2400,45,12,105,0,30,285,0,-19.79360008239746,34.89649963378906,-19.7992000579834,34.91859817504883
FQCH,2400,45,01,5,0,19,185,0,-19.162099838256836,33.428001403808594,-19.140399932861328,33.429901123046875
FQLC,2530,45,08,71,0,26,251,0,-13.277799606323242,35.25529861450195,-13.2701997756958,35.27730178833008
FQMA,3660,45,05,29,0,23,209,0,-25.92490005493164,32.570098876953125,-25.89590072631836,32.587799072265625
FQNP,2000,45,05,46,0,23,226,0,-15.111800193786621,39.27510070800781,-15.09939956665039,39.28850173950195
FQPB,1800,45,17,161,0,35,341,0,-12.985600471496582,40.522098541259766,-13.00100040435791,40.5275993347168
FQQL,1800,45,18,174,0,36,354,0,-17.847400665283203,36.86830139160156,-17.86359977722168,36.869998931884766
FQTT,2507,45,01,2,0,19,182,0,-16.116100311279297,33.63990020751953,-16.0935001373291,33.640499114990234
FSIA,2987,46,13,125,305,31,305,305,-4.666629791259766,55.510799407958984,-4.682129859924316,55.532901763916016
FTTJ,2800,45,05,46,0,23,226,0,12.124899864196777,15.024700164794922,12.142499923706055,15.04319953918457
FTTY,2800,45,06,58,0,24,238,0,17.910400390625,19.09980010986328,17.9237003326416,19.122299194335938
FVBU,2588,45,13,115,0,31,295,0,-20.016199111938477,28.61520004272461,-20.026199340820312,28.63759994506836
FVFA,4000,45,12,110,0,30,290,0,-18.090809,25.818058,-18.103195,25.853556
FVHA,4725,46,05,46,1084,23,226,0,-17.9468994140625,31.07710075378418,-17.91670036315918,31.108600616455078
FVTL,2672,30,13L,116,0,31R,296,0,-19.43120002746582,29.850400924682617,-19.441600799560547,29.87339973449707
FWKI,3540,45,14,131,0,32,311,0,-13.77910041809082,33.76839828491211,-13.799599647521973,33.79359817504883
FXMM,3200,45,04,15,200,22,195,0,-29.469499588012695,27.550199508666992,-29.441699981689453,27.558900833129883
FYGF,3560,45,08,68,0,26,248,0,-19.604799270629883,18.115800857543945,-19.592599868774414,18.147300720214844
FYKT,2316,45,04,16,0,22,196,0,-26.549800872802734,18.108299255371094,-26.52989959716797,18.114599227905273
FYWH,4575,45,08,64,0,26,244,0,-22.48979949951172,17.449499130249023,-22.471399307250977,17.48940086364746
FZAA,4000,60,06,58,0,24,238,0,-4.3969340324401855,15.427083015441895,-4.377395153045654,15.45740795135498
FZAI,2400,45,05,45,0,23,225,0,-5.926390171051025,12.438400268554688,-5.911109924316406,12.453800201416016
FZEA,2202,45,18,173,0,36,353,0,0.0324690006673336,18.287599563598633,0.012733000330626965,18.289899826049805
FZFD,3200,60,07,73,0,25,253,0,4.248899936676025,20.96150016784668,4.2575201988220215,20.989099502563477
FZFK,1996,45,11,102,0,29,282,0,3.2373099327087402,19.762500762939453,3.2334299087524414,19.780000686645508
FZIC,3500,45,13,125,0,31,305,0,0.4906669855117798,25.32509994506836,0.4726249873638153,25.350799560546875
FZJH,2500,45,13,130,0,31,310,198,2.8348801136016846,27.579599380493164,2.8203299045562744,27.596900939941406
FZNA,2955,45,17,174,0,35,354,0,-1.652858018875122,29.236658096313477,-1.679447054862976,29.2392520904541
FZOA,2200,45,18,176,0,36,356,0,-2.9092400074005127,25.91469955444336,-2.9291200637817383,25.916099548339844
FZQA,3238,50,07,66,0,25,246,0,-11.597100257873535,27.51729965209961,-11.585399627685547,27.54450035095215
FZSA,2700,45,13L,121,0,31R,301,0,-8.633469581604004,25.25629997253418,-8.6460599899292,25.27739906311035
FZUA,2200,45,11,108,0,29,288,0,-5.897039890289307,22.459699630737305,-5.903039932250977,22.478599548339844
FZWA,1999,45,17,161,0,35,341,0,-6.112709999084473,23.566099166870117,-6.129759788513184,23.5718994140625
GABS,3200,45,06,57,0,24,237,0,12.526800155639648,-7.960350036621094,12.540300369262695,-7.939539909362793
GAGO,2500,45,07,62,0,25,242,0,16.243200302124023,-0.015816999599337578,16.253700256347656,0.004902999848127365
GBYD,3600,45,14,131,0,32,311,0,13.348600387573242,-16.6648006439209,13.327400207519531,-16.63960075378418
GCFV,3535,45,01,2,1061,19,182,524,28.4419002532959,-13.864100456237793,28.459400177001953,-13.863499641418457
GCLA,2200,45,36,359,0,18,179,0,28.616600036621094,-17.755399703979492,28.63640022277832,-17.755800247192383
GCLP,3100,45,03L,22,0,21R,202,0,27.918899536132812,-15.39229965209961,27.944900512695312,-15.380800247192383
GCLP,3100,45,03R,22,0,21L,202,0,27.91819953918457,-15.390399932861328,27.94420051574707,-15.378800392150879
GCRR,2400,45,03,27,0,21,207,0,28.935800552368164,-13.610799789428711,28.95509910583496,-13.599599838256836
GCTS,3200,45,07,69,0,25,249,0,28.039199829101562,-16.587600708007812,28.049699783325195,-16.557300567626953
GCXO,3171,45,12,111,0,30,291,0,28.291592,-16.212487,28.283971,-16.193561
GFLL,3200,46,12,107,0,30,287,0,8.62069034576416,-13.209400177001953,8.612199783325195,-13.181599617004395
GGOV,3200,45,03,19,0,21,199,0,11.881199836730957,-15.65839958190918,11.908499717712402,-15.64900016784668
GLMR,1829,30,05,40,61,23,220,61,6.2825398445129395,-10.763899803161621,6.295209884643555,-10.753299713134766
GLRB,3353,46,04,31,0,22,211,366,6.220829963684082,-10.370100021362305,6.2467498779296875,-10.354499816894531
GMAD,3200,45,09,91,0,27,271,0,30.323028564453125,-9.428160667419434,30.322235107421875,-9.394893646240234
GMFF,3200,45,09,90,0,27,270,250,33.927398681640625,-4.99521017074585,33.92729949951172,-4.960659980773926
GMFK,3200,45,13,125,0,31,305,0,31.956600189208984,-4.4149298667907715,31.939899444580078,-4.386980056762695
GMFM,2820,50,09,83,151,27,263,0,33.87220001220703,-5.525430202484131,33.875,-5.494999885559082
GMFO,3000,45,06,58,0,24,238,0,34.77989959716797,-1.9378399848937988,34.79439926147461,-1.9101300239562988
GMFO,3000,45,13,132,0,31,312,0,34.80979919433594,-1.9521700143814087,34.792198181152344,-1.9275000095367432
GMME,3500,45,03,33,0,21,213,0,34.03799819946289,-6.761390209197998,34.06489944458008,-6.741650104522705
GMMH,3000,45,03,23,0,21,203,0,23.705799102783203,-15.937700271606445,23.73080062866211,-15.926300048828125
GMMI,2607,45,16,159,0,34,339,0,31.41011619567871,-9.687955856323242,31.38824462890625,-9.678025245666504
GMML,2701,45,02,16,0,20,196,0,27.130199432373047,-13.235400199890137,27.153600692749023,-13.22760009765625
GMML,2500,45,04,32,0,22,212,0,27.135799407958984,-13.225899696350098,27.155000686645508,-13.212599754333496
GMMN,3720,45,17L,164,0,35R,344,0,33.38399887084961,-7.593520164489746,33.35179901123047,-7.582489967346191
GMMN,3720,45,17R,164,0,35L,344,0,33.38309860229492,-7.597430229187012,33.35089874267578,-7.586420059204102
GMMW,3000,45,08,78,0,26,258,0,34.986000061035156,-3.0442800521850586,34.991600036621094,-3.01213002204895
GMMX,3100,45,10,96,280,28,276,0,31.608400344848633,-8.052539825439453,31.605499267578125,-8.019989967346191
GMMY,2437,46,07,63,0,25,243,0,34.2963981628418,-6.611959934234619,34.30649948120117,-6.588389873504639
GMMZ,3000,45,12,117,0,30,297,0,30.945199966430664,-6.923439979553223,30.933000564575195,-6.895510196685791
GMSL,3445,43,08,69,0,26,249,0,34.224998474121094,-6.0676398277282715,34.23630142211914,-6.032770156860352
GMTA,2500,45,18,173,0,36,353,0,35.188499450683594,-3.841320037841797,35.166099548339844,-3.837790012359619
GMTN,2300,45,06,54,0,24,234,0,35.58829879760742,-5.330359935760498,35.600399017333984,-5.309679985046387
GMTT,3500,45,10,96,0,28,276,500,35.733299255371094,-5.940310001373291,35.72999954223633,-5.901820182800293
GOBD,3500,60,01,359,120,19,179,120,14.655200004577637,-17.07270050048828,14.686800003051758,-17.072969436645508
GOOY,3490,45,18,173,160,36,353,0,14.757100105285645,-17.480899810791016,14.725799560546875,-17.476699829101562
GOSS,1899,30,18,173,0,36,353,0,16.058799743652344,-16.462299346923828,16.041799545288086,-16.459999084472656
GOTK,1800,45,11,103,0,29,283,0,12.574199676513672,-12.228400230407715,12.57040023803711,-12.212300300598145
GQNI,2100,30,09,84,0,27,264,0,16.6210994720459,-7.326389789581299,16.622900009155273,-7.306739807128906
GQNN,3010,45,05,38,0,23,218,0,18.087099075317383,-15.95680046081543,18.10849952697754,-15.939299583435059
GQNO,2400,45,06,50,0,24,230,0,18.29479217529297,-15.99239444732666,18.308822631835938,-15.975079536437988
GQNO,3400,60,16,150,0,34,330,0,18.31633949279785,-15.973580360412598,18.289810180664062,-15.95734977722168
GQPP,2427,45,02,14,0,20,194,0,20.922300338745117,-17.032800674438477,20.943500518798828,-17.027000427246094
GUCY,3300,45,06,49,0,24,229,0,9.56721019744873,-13.623299598693848,9.586589813232422,-13.600500106811523
GVAC,3000,45,01,358,270,19,178,0,16.723953247070312,-22.94886589050293,16.75106430053711,-22.949054718017578
HAAB,3700,45,07L,74,251,25R,254,376,8.973979949951172,38.78239822387695,8.983389854431152,38.814701080322266
HAAB,3800,45,07R,74,361,25L,254,357,8.972260475158691,38.78350067138672,8.981940269470215,38.81669998168945
HAAM,2795,47,03,32,0,21,212,0,6.028689861297607,37.58369827270508,6.0500898361206055,37.597198486328125
HAAX,2400,45,16,160,0,34,340,0,14.156900405883789,38.7692985534668,14.136500358581543,38.77640151977539
HABD,3000,45,04,45,0,22,225,0,11.598600387573242,37.3120002746582,11.617600440979004,37.331298828125
HADR,2679,45,15,152,0,33,332,0,9.635760307312012,41.8484992980957,9.614330291748047,41.859798431396484
HAGN,2765,44,17,170,0,35,350,0,12.53219985961914,37.431800842285156,12.507599830627441,37.43629837036133
HALL,2435,53,10,96,0,28,276,0,11.976200103759766,38.96889877319336,11.973799705505371,38.9911003112793
HAMK,3604,43,11,112,300,29,292,300,13.473400115966797,39.518001556396484,13.461299896240234,39.54890060424805
HBBA,3600,45,17,172,0,35,352,0,-3.307990074157715,29.31599998474121,-3.340049982070923,29.320999145507812
HCMH,3700,45,06,55,0,24,235,0,9.505440711975098,44.071128845214844,9.524374961853027,44.098899841308594
HDAM,3150,45,09,91,0,27,271,222,11.547499656677246,43.14509963989258,11.547100067138672,43.17390060424805
HE11,2000,43,13,134,0,31,314,0,29.880699157714844,27.93320083618164,29.868099212646484,27.947999954223633
HE28,3025,40,15,152,0,33,332,0,30.550100326538086,30.545499801635742,30.525999069213867,30.560300827026367
HE31,1753,31,14,140,0,32,320,0,29.817100524902344,28.541799545288086,29.805099487304688,28.553600311279297
HE32,2769,40,14,139,0,32,319,0,30.975200653076172,31.422000885009766,30.956499099731445,31.441200256347656
HE40,3012,40,16R,159,0,34L,339,0,31.478700637817383,25.870899200439453,31.453399658203125,25.882299423217773
HEAL,3499,45,13,130,0,31,310,0,30.93470001220703,28.447599411010742,30.914100646972656,28.475299835205078
HEAR,3019,45,16,157,0,34,337,0,31.085800170898438,33.8297004699707,31.060699462890625,33.84199905395508
HEAT,3019,45,13,130,0,31,310,0,27.055200576782227,31.00029945373535,27.037799835205078,31.023700714111328
HEAX,2201,45,04,45,0,22,225,0,31.174699783325195,29.938100814819336,31.18869972229004,29.954500198364258
HEAZ,2050,45,18,181,0,36,1,175,30.101900100708008,31.360000610351562,30.083499908447266,31.36009979248047
HEBA,3400,45,14,143,0,32,323,0,30.930400848388672,29.685100555419922,30.905899047851562,29.706600189208984
HEBL,3000,45,15,150,0,33,330,0,22.387699127197266,31.604400634765625,22.364200592041016,31.618999481201172
HECA,3999,60,05C,45,0,23C,225,0,30.099701,31.398199,30.123301,31.4296
HECA,3301,60,05L,49,0,23R,229,0,30.119699478149414,31.380199432373047,30.13909912109375,31.406299591064453
HECA,4000,60,05R,49,0,23L,229,0,30.097166061401367,31.41900062561035,30.12066650390625,31.45050048828125
HECP,3231,40,01L,15,1113,19R,195,0,30.035601,31.834,30.0637,31.842501
HECW,2781,45,10,106,0,28,286,0,30.118200302124023,30.90839958190918,30.1112003326416,30.936199188232422
HECW,3639,60,16L,165,300,34R,345,300,30.132299423217773,30.910900115966797,30.105899810791016,30.918699264526367
HEGN,4015,45,16L,165,302,34R,345,0,27.19610023498535,33.795799255371094,27.161100387573242,33.80609893798828
HEGN,4014,60,16R,165,0,34L,345,0,27.193899154663086,33.7864990234375,27.159000396728516,33.79690170288086
HEGS,2883,44,11,113,0,29,293,0,30.822200775146484,30.17609977722168,30.81220054626465,30.203899383544922
HEGS,2887,44,12,124,0,30,304,0,30.829700469970703,30.179899215698242,30.815099716186523,30.204999923706055
HEKG,3500,45,18,180,0,36,360,0,25.48940086364746,30.590700149536133,25.457799911499023,30.590700149536133
HELX,3000,45,02,23,0,20,203,0,25.658599853515625,32.70069885253906,25.6835994720459,32.712100982666016
HEMA,3430,45,15,150,90,33,330,90,25.5688,34.576199,25.545401,34.591202
HEPS,2349,45,10,106,0,28,286,0,31.28230094909668,32.22819900512695,31.276500701904297,32.25189971923828
HESH,3081,45,04L,43,0,22R,223,0,27.9685001373291,34.382598876953125,27.98889923095703,34.403900146484375
HESH,3081,45,04R,43,0,22L,223,0,27.965700149536133,34.38600158691406,27.986099243164062,34.40729904174805
HESN,3402,45,17,171,0,35,351,0,23.9795,32.817299,23.9492,32.822601
HESX,3786,75,16R,165,67,34L,345,67,30.124099731445312,30.89109992980957,30.092300415039062,30.900400161743164
HETB,4000,45,04L,42,0,22R,222,0,29.57539939880371,34.76319885253906,29.6023006439209,34.79069900512695
HETR,3000,45,10,104,0,28,284,0,28.212299346923828,33.630699157714844,28.205699920654297,33.660301208496094
HHAS,3000,45,07,74,0,25,254,0,15.284099578857422,38.894100189208984,15.291399955749512,38.92100143432617
HHMS,3470,45,07,75,0,25,255,0,15.666000366210938,39.35449981689453,15.673999786376953,39.385799407958984
HKEL,3499,45,08,79,0,26,259,0,0.4009140133857727,35.22129821777344,0.40710800886154175,35.25210189819336
HKJK,4117,45,06,54,0,24,234,0,-1.327589988708496,36.91640090942383,-1.305709958076477,36.9463005065918
HKKI,3299,45,06,62,300,24,242,151,-0.09571799635887146,34.71080017089844,-0.08158999681472778,34.736900329589844
HKMO,3350,46,03,29,0,21,209,0,-4.039519786834717,39.59170150756836,-4.013090133666992,39.60639953613281
HKRE,2438,46,06,57,0,24,237,0,-1.2832000255584717,36.85309982299805,-1.2713299989700317,36.87160110473633
HL59,3608,45,15,150,0,33,330,0,32.01259994506836,21.182199478149414,31.984399795532227,21.2012996673584
HL68,3400,45,14,142,0,32,322,0,32.46500015258789,23.1072998046875,32.440799713134766,23.12980079650879
HL80,2100,30,13,133,0,31,313,0,30.64940071105957,18.31279945373535,30.636499404907227,18.328800201416016
HL81,2367,30,09,89,0,27,269,0,29.5310001373291,12.931599617004395,29.531299591064453,12.956000328063965
HLFL,2149,45,16,165,0,34,345,0,28.80470085144043,22.078100204467773,28.785999298095703,22.083799362182617
HLGL,2004,30,18,180,0,36,360,0,28.639299392700195,21.43779945373535,28.621200561523438,21.43790054321289
HLGT,3600,45,17,172,0,35,352,0,25.151599884033203,10.14169979095459,25.119400024414062,10.147000312805176
HLKF,3660,30,02L,15,0,20R,195,0,24.16320037841797,23.30820083618164,24.19499969482422,23.31760025024414
HLKF,3660,45,02R,15,0,20L,195,0,24.162599563598633,23.310400009155273,24.194400787353516,23.319799423217773
HLLB,3576,45,15L,150,0,33R,330,0,32.11159896850586,20.261499404907227,32.083499908447266,20.28019905090332
HLLB,3576,45,15R,150,0,33L,330,0,32.110198974609375,20.258699417114258,32.08209991455078,20.27739906311035
HLLM,3400,45,10,103,0,28,283,0,32.89577865600586,13.270360946655273,32.88783264160156,13.304944038391113
HLLS,3590,45,13,133,0,31,313,0,27.004499435424805,14.451399803161621,26.982500076293945,14.477999687194824
HLLT,3601,44,09,90,0,27,270,1189,32.663101,13.1288,32.6637,13.1672
HLLT,2637,44,18,177,0,36,357,114,32.6797981262207,13.158100128173828,32.65610122680664,13.15939998626709
HRYR,3500,45,10,100,0,28,280,215,-1.96589994430542,30.123899459838867,-1.9713499546051025,30.155000686645508
HSDN,3000,45,17,173,0,35,353,0,19.167400360107422,30.428800582885742,19.140399932861328,30.431400299072266
HSDZ,2749,45,17,170,0,35,350,0,11.79699993133545,34.33470153808594,11.774800300598145,34.338600158691406
HSFS,2970,45,05,52,0,23,232,0,13.60669994354248,25.31399917602539,13.62339973449707,25.335599899291992
HSKA,2500,45,02,22,0,20,202,0,15.375399589538574,36.32379913330078,15.396400451660156,36.33250045776367
HSMN,4019,60,02,-1,0,20,-1,0,18.426422119140625,31.836091995239258,18.459754943847656,31.851181030273438
HSNN,3011,45,04,41,0,22,221,0,12.04319953918457,24.94700050354004,12.063699722290039,24.965299606323242
HSOB,3000,45,01,8,0,19,188,0,13.139800071716309,30.23069953918457,13.166500091552734,30.234800338745117
HSPN,2500,45,17,165,0,35,345,0,19.444599151611328,37.23149871826172,19.42259979248047,37.236698150634766
HSSK,2972,45,18,177,0,36,357,0,15.602999687194824,32.553001403808594,15.576000213623047,32.55329895019531
HTDA,3000,46,05,45,0,23,225,0,-6.88286018371582,39.19779968261719,-6.863719940185547,39.21699905395508
HTKJ,3607,45,09,87,0,27,267,0,-3.4301600456237793,37.05830001831055,-3.4287500381469727,37.0906982421875
HTMW,3113,45,12,116,91,30,296,0,-2.438230037689209,32.920101165771484,-2.450740098953247,32.9452018737793
HTZA,3022,45,18,174,0,36,354,0,-6.21097993850708,39.22380065917969,-6.233069896697998,39.22600173950195
HUEN,3658,46,17,171,0,35,351,0,0.05559699982404709,32.4359016418457,0.02291399985551834,32.44110107421875
IN-0072,2020,30,10,103,0,28,283,1285,-1.0,-1.0,-1.0,-1.0
ISG,2000,45,04,-1,0,22,-1,0,-1.0,-1.0,-1.0,-1.0
K17J,1761,30,1,2,45,19,182,32,30.998941,-84.878019,31.014068,-84.877263
K28J,1828,30,09,87,0,27,267,137,29.657800674438477,-81.69999694824219,29.658599853515625,-81.68109893798828
K2I0,1844,30,05,51,0,23,231,0,37.350799560546875,-87.40640258789062,37.36109924316406,-87.39009857177734
K4R4,2013,30,01,7,0,19,187,0,30.45159912109375,-87.87870025634766,30.469499588012695,-87.8761978149414
K4SD,2319,46,08,96,0,26,276,0,39.66429901123047,-119.89199829101562,39.662200927734375,-119.86499786376953
K4SD,2743,46,14,154,0,32,334,0,39.68339920043945,-119.88200378417969,39.66130065917969,-119.86699676513672
K4T2,1829,38,17,176,0,35,356,0,32.979000091552734,-97.4885025024414,32.962501525878906,-97.48709869384766
K5T6,2591,30,10,112,0,28,292,0,31.885299682617188,-106.71800231933594,31.87660026550293,-106.69200134277344
K8A0,1864,30,05,48,0,23,228,176,34.2234992980957,-86.26329803466797,34.23469924926758,-86.24819946289062
K9L2,1828,46,06,75,0,24,255,0,34.98849868774414,-117.87300109863281,34.992801666259766,-117.85299682617188
KAAO,1860,30,18,187,0,36,7,0,37.75590133666992,-97.21990203857422,37.73929977416992,-97.22239685058594
KABE,2316,46,06,51,0,24,231,152,40.64699935913086,-75.45059967041016,40.65999984741211,-75.4292984008789
KABE,1767,46,13,123,0,31,303,0,40.65520095825195,-75.44979858398438,40.64649963378906,-75.43219757080078
KABI,2194,46,17L,180,0,35R,360,0,32.40850067138672,-99.67479705810547,32.38869857788086,-99.67469787597656
KABI,2195,46,17R,180,0,35L,360,0,32.4281005859375,-99.68489837646484,32.40829849243164,-99.68479919433594
KABR,2103,30,13,135,0,31,315,0,45.4552001953125,-98.4280014038086,45.44179916381836,-98.40899658203125
KABY,2012,46,04,42,0,22,222,0,31.529600143432617,-84.19969940185547,31.543100357055664,-84.18550109863281
KACJ,1835,30,05,46,0,23,226,0,32.104400634765625,-84.19550323486328,32.11589813232422,-84.18160247802734
KACK,1921,46,06,45,168,24,225,0,41.24689865112305,-70.07250213623047,41.25920104980469,-70.0562973022461
KACT,2010,46,01,14,0,19,194,0,31.603500366210938,-97.2300033569336,31.6210994720459,-97.22470092773438
KACT,1797,46,14,149,0,32,329,0,31.61709976196289,-97.23889923095703,31.603200912475586,-97.22920227050781
KACV,1829,46,14,153,243,32,333,0,40.98569869995117,-124.11299896240234,40.97100067138672,-124.10299682617188
KACY,1873,46,04,28,0,22,208,0,39.44969940185547,-74.58519744873047,39.464599609375,-74.57489776611328
KACY,3048,46,13,118,0,31,298,0,39.464298248291016,-74.59100341796875,39.45140075683594,-74.55970001220703
KADH,1891,30,17,180,0,35,360,30,34.81330108642578,-96.6719970703125,34.796199798583984,-96.6719970703125
KADM,2744,46,13,135,0,31,315,0,34.31129837036133,-97.02510070800781,34.29710006713867,-97.00830078125
KADS,2195,30,16,160,298,34,340,235,32.977798,-96.8405,32.959301,-96.832397
KADW,2835,61,01L,360,0,19R,180,0,38.797698974609375,-76.87059783935547,38.823299407958984,-76.87069702148438
KADW,2973,46,01R,360,0,19L,180,0,38.797698974609375,-76.86360168457031,38.824501037597656,-76.86370086669922
KAEG,2256,30,04,46,0,22,226,0,35.13869857788086,-106.80899810791016,35.152801513671875,-106.79100036621094
KAEG,1828,30,17,180,0,35,360,0,35.1525993347168,-106.78900146484375,35.13610076904297,-106.78900146484375
KAEX,2850,46,14,144,0,32,324,0,31.337900161743164,-92.55919647216797,31.317100524902344,-92.5416030883789
KAFW,3353,46,16L,170,0,34R,350,0,33.0015983581543,-97.3207015991211,32.97560119628906,-97.31539916992188
KAFW,3356,46,16R,170,0,34L,350,183,32.997798919677734,-97.3218994140625,32.975399017333984,-97.31739807128906
KAGC,1982,46,10,90,0,28,270,0,40.35430145263672,-79.94110107421875,40.35430145263672,-79.91780090332031
KAGR,2438,46,05,50,0,23,230,0,27.640899658203125,-81.35150146484375,27.655000686645508,-81.3324966430664
KAGS,2439,46,17,168,0,35,348,0,33.38240051269531,-81.9708023071289,33.36090087890625,-81.96549987792969
KAHC,2185,46,08,99,0,26,279,0,40.2677001953125,-120.16500091552734,40.26459884643555,-120.13999938964844
KAIA,2805,46,12,134,0,30,314,0,42.060001373291016,-102.81900024414062,42.04240036010742,-102.79399871826172
KAIZ,1980,30,03,37,0,21,217,0,38.08890151977539,-92.5562973022461,38.10309982299805,-92.5427017211914
KAKO,2134,30,11,119,0,29,299,0,40.180301666259766,-103.23300170898438,40.1708984375,-103.21099853515625
KAKR,1932,46,07,62,112,25,242,259,41.03329849243164,-81.47779846191406,41.041500091552734,-81.45760345458984
KALB,2195,46,01,358,0,19,178,0,42.73720169067383,-73.8042984008789,42.756900787353516,-73.80509948730469
KALB,2195,46,10,88,0,28,268,366,42.74919891357422,-73.81210327148438,42.74980163574219,-73.7853012084961
KALI,1828,30,13,134,0,31,314,0,27.74530029296875,-98.03389739990234,27.733800888061523,-98.02069854736328
KALM,2135,46,03,46,0,21,226,0,32.83319854736328,-105.9990005493164,32.84669876098633,-105.98200225830078
KALN,2469,46,11,113,0,29,293,0,38.895198822021484,-90.05500030517578,38.88639831542969,-90.02880096435547
KALN,1981,30,17,173,0,35,353,0,38.89849853515625,-90.05249786376953,38.880699157714844,-90.04989624023438
KALO,2560,46,12,128,0,30,308,0,42.566001892089844,-92.41200256347656,42.55189895629883,-92.38729858398438
KALO,1829,46,18,188,0,36,8,0,42.56589889526367,-92.40149688720703,42.549598693847656,-92.40450286865234
KALS,2597,30,02,32,0,20,212,0,37.425201416015625,-105.8759994506836,37.445098876953125,-105.86000061035156
KALW,1989,46,02,36,0,20,216,0,46.08530044555664,-118.29199981689453,46.09980010986328,-118.2770004272461
KAMA,4115,91,04,46,0,22,226,0,35.205101013183594,-101.73300170898438,35.230899810791016,-101.69999694824219
KAMA,2408,46,13,138,0,31,318,0,35.229698181152344,-101.6969985961914,35.21369934082031,-101.67900085449219
KANB,2134,46,05,48,0,23,228,0,33.5817985534668,-85.86669921875,33.59450149536133,-85.84950256347656
KAND,1829,46,05,46,0,23,226,0,34.48860168457031,-82.71589660644531,34.500099182128906,-82.70159912109375
KANW,2080,34,17,179,0,35,359,0,42.58610153198242,-99.99669647216797,42.56740188598633,-99.99639892578125
KAPA,3048,30,17L,178,0,35R,358,0,39.58409881591797,-104.85099792480469,39.55670166015625,-104.8499984741211
KAPC,1808,46,18R,201,0,36L,21,0,38.223201751708984,-122.27799987792969,38.20800018310547,-122.28500366210938
KAPG,2437,61,04,28,0,22,208,0,39.4557991027832,-76.17500305175781,39.475101470947266,-76.1614990234375
KAPN,2744,46,01,360,0,19,180,0,45.06489944458008,-83.5614013671875,45.089599609375,-83.5615005493164
KAPV,1981,46,18,196,0,36,16,182,34.587501525878906,-117.18299865722656,34.57040023803711,-117.18900299072266
KARA,2439,61,16,168,0,34,348,0,30.048500061035156,-91.8865966796875,30.027000427246094,-91.8812026977539
KARG,1829,46,04,45,366,22,225,0,36.11360168457031,-90.93370056152344,36.12519836425781,-90.91929626464844
KARR,1982,30,09,89,0,27,269,0,41.770198822021484,-88.48539733886719,41.77040100097656,-88.46150207519531
KASE,2440,30,15,160,0,33,340,0,-1.0,-1.0,-1.0,-1.0
KASN,1829,30,03,35,0,21,215,0,33.563201904296875,-86.05660247802734,33.57659912109375,-86.04519653320312
KAST,1767,30,08,95,92,26,275,215,46.1598014831543,-123.88999938964844,46.15829849243164,-123.86699676513672
KASW,1829,30,09,89,0,27,269,274,41.27239990234375,-85.84619903564453,41.272701263427734,-85.82440185546875
KATL,2743,46,08L,90,0,26R,270,0,33.64950180053711,-84.43900299072266,33.64950180053711,-84.40950012207031
KATL,3048,46,08R,90,0,26L,270,0,33.64680099487305,-84.43840026855469,33.64680099487305,-84.40550231933594
KATL,3624,46,09L,90,0,27R,270,0,33.634700775146484,-84.447998046875,33.634700775146484,-84.40889739990234
KATL,2744,46,09R,90,0,27L,270,0,33.63180160522461,-84.447998046875,33.63180160522461,-84.41840362548828
KATL,2743,46,10,90,0,28,270,0,33.62030029296875,-84.4478988647461,33.62030029296875,-84.41829681396484
KATS,1921,46,03,45,0,21,225,0,32.84600067138672,-104.4749984741211,32.858299255371094,-104.46099853515625
KATW,2439,46,03,26,0,21,206,0,44.2489013671875,-88.52619934082031,44.26860046386719,-88.51270294189453
KATW,1982,46,11,116,0,29,296,0,44.261199951171875,-88.52970123291016,44.253299713134766,-88.50740051269531
KATY,2103,46,12,125,0,30,305,91,44.92219924926758,-97.16929626464844,44.9114990234375,-97.14739990234375
KATY,2102,46,17,180,0,35,0,0,44.92060089111328,-97.1510009765625,44.90169906616211,-97.15119934082031
KAUS,2743,46,18L,179,0,36R,359,0,30.2038,-97.657898,30.1791,-97.657204
KAUS,3733,46,18R,179,0,36L,359,0,30.2136,-97.679398,30.179899,-97.678497
KAVL,2439,46,17,160,0,35,340,0,35.44649887084961,-82.54640197753906,35.425899505615234,-82.53720092773438
KAVP,2286,46,04,33,0,22,213,0,41.32870101928711,-75.73149871826172,41.34600067138672,-75.716796875
KAVQ,2103,30,12,136,0,30,316,0,32.417701721191406,-111.22599792480469,32.40409851074219,-111.21099853515625
KAWM,1830,30,17,180,0,35,0,0,35.1432991027832,-90.2343978881836,35.126800537109375,-90.2344970703125
KAXX,2713,30,17,182,0,35,2,0,36.434200286865234,-105.28900146484375,36.4098014831543,-105.29000091552734
KAYS,1829,46,18,179,0,36,359,0,31.255399703979492,-82.39839935302734,31.23900032043457,-82.39810180664062
KAYX,1829,46,03,30,0,21,210,0,35.385398864746094,-86.09089660644531,35.39970016479492,-86.08080291748047
KAZO,1981,46,17,171,0,35,351,0,42.24250030517578,-85.552001953125,42.22480010986328,-85.54830169677734
KBAB,3658,91,15,161,0,33,341,0,39.15169906616211,-121.44300079345703,39.12049865722656,-121.43000030517578
KBAD,3583,91,15,151,0,33,331,0,32.5161018371582,-93.67179870605469,32.48780059814453,-93.65350341796875
KBAF,2743,46,02,10,0,20,190,0,42.145301818847656,-72.71880340576172,42.16960144042969,-72.71289825439453
KBAK,1951,46,05,45,0,23,225,0,39.25519943237305,-85.90489959716797,39.2677001953125,-85.88890075683594
KBAM,2225,46,03,49,0,21,229,0,40.59379959106445,-116.88500213623047,40.606998443603516,-116.86499786376953
KBAM,2225,30,12,139,0,30,319,0,40.60530090332031,-116.88200378417969,40.5900993347168,-116.86499786376953
KBBG,2176,46,14,145,0,32,325,0,36.54010009765625,-93.2074966430664,36.52399826049805,-93.193603515625
KBCT,1913,46,05,44,212,23,224,115,26.372299194335938,-80.1144027709961,26.384700775146484,-80.10099792480469
KBDL,2899,61,06,44,0,24,224,0,41.93199920654297,-72.69660186767578,41.95069885253906,-72.6720962524414
KBDL,2087,46,15,135,0,33,315,0,41.94240188598633,-72.69329833984375,41.929298400878906,-72.67530059814453
KBEC,2438,30,18,191,0,36,11,0,37.705299377441406,-97.2125015258789,37.68370056152344,-97.21749877929688
KBED,2134,46,11,98,0,29,278,0,42.4718017578125,-71.30039978027344,42.469398498535156,-71.27459716796875
KBFD,1923,46,14,134,0,32,314,0,41.80929946899414,-78.6488037109375,41.797298431396484,-78.6321029663086
KBFF,2439,46,05,68,0,23,248,0,41.86980056762695,-103.61100006103516,41.87799835205078,-103.58300018310547
KBFF,2523,46,12,136,0,30,316,0,41.882301330566406,-103.6050033569336,41.8661003112793,-103.58399963378906
KBFI,3050,61,14R,140,0,32L,320,270,47.54050064086914,-122.31099700927734,47.51679992675781,-122.29100036621094
KBFL,3309,46,12L,135,0,30R,316,1045,35.4463005065918,-119.07099914550781,35.42509841918945,-119.0459976196289
KBFM,2932,46,14,139,0,32,319,0,30.633100509643555,-88.07990264892578,30.61319923400879,-88.05979919433594
KBFM,2377,46,18,180,0,36,360,0,30.642000198364258,-88.06590270996094,30.6205997467041,-88.06590270996094
KBGD,1920,30,17,178,0,35,358,0,35.709999084472656,-101.39399719238281,35.69269943237305,-101.39299774169922
KBGM,2164,46,16,148,122,34,328,0,42.219200134277344,-75.98680114746094,42.202701568603516,-75.97309875488281
KBGR,3487,61,15,134,0,33,314,0,44.81840133666992,-68.84390258789062,44.79650115966797,-68.81230163574219
KBHM,3048,46,06,55,0,24,235,539,33.5547981262207,-86.77159881591797,33.57040023803711,-86.74449920654297
KBHM,2164,46,18,180,319,36,360,0,33.57320022583008,-86.74720001220703,33.5536994934082,-86.74720001220703
KBIF,4131,46,03,44,0,21,224,0,31.83609962463379,-106.3949966430664,31.863000869750977,-106.36499786376953
KBIH,2285,30,12,136,0,30,316,0,37.38010025024414,-118.37300109863281,37.365501403808594,-118.3550033569336
KBIL,3206,46,10L,112,0,28R,292,0,45.81269836425781,-108.55500030517578,45.802101135253906,-108.51699829101562
KBIS,2012,30,03,39,0,21,219,0,46.76259994506836,-100.74800109863281,46.77669906616211,-100.73200225830078
KBIS,2680,46,13,138,0,31,318,0,46.784000396728516,-100.76200103759766,46.76620101928711,-100.73799896240234
KBIV,1909,30,08,80,561,26,260,0,42.74129867553711,-86.1187973022461,42.74440002441406,-86.09590148925781
KBIX,2326,46,03,35,487,21,215,305,30.401899337768555,-88.931396484375,30.41900062561035,-88.91739654541016
KBJC,2743,30,12L,124,0,30R,304,0,39.91529846191406,-105.12799835205078,39.90140151977539,-105.10199737548828
KBJI,2011,46,13,134,0,31,314,0,47.51599884033203,-94.94300079345703,47.50339889526367,-94.92379760742188
KBKF,3353,46,14,151,0,32,331,0,39.71500015258789,-104.76100158691406,39.688499450683594,-104.74299621582031
KBKL,1889,46,06L,58,81,24R,238,0,41.51390075683594,-81.69270324707031,41.52289962768555,-81.67350006103516
KBKV,2134,46,09,90,0,27,270,0,28.475900650024414,-82.47059631347656,28.47599983215332,-82.44879913330078
KBKW,2057,46,01,8,0,19,188,0,37.782100677490234,-81.12580108642578,37.80039978027344,-81.1227035522461
KBLH,1994,46,08,90,0,26,270,0,33.616600036621094,-114.72799682617188,33.61650085449219,-114.70600128173828
KBLH,1768,30,17,180,0,35,0,0,33.630001068115234,-114.71700286865234,33.61410140991211,-114.71700286865234
KBLI,2042,46,16,180,0,34,360,0,48.80189895629883,-122.53800201416016,48.78350067138672,-122.53700256347656
KBLV,3048,46,14L,137,0,32R,317,0,38.55619812011719,-89.83350372314453,38.53630065917969,-89.80950164794922
KBLV,2439,46,14R,136,0,32L,316,61,38.55179977416992,-89.86190032958984,38.5359001159668,-89.84269714355469
KBMC,2713,30,17,180,0,35,360,0,41.56269836425781,-112.06199645996094,41.54209899902344,-112.06199645996094
KBMG,1981,46,17,171,0,35,351,0,39.158199310302734,-86.61810302734375,39.140499114990234,-86.61479949951172
KBMI,2438,46,02,18,0,20,198,0,40.4640998840332,-88.91600036621094,40.484901428222656,-88.9072036743164
KBMI,1989,46,11,108,0,29,288,0,40.48310089111328,-88.93229675292969,40.47760009765625,-88.91000366210938
KBNA,2439,46,02C,18,139,20C,198,0,36.10329818725586,-86.68800354003906,36.12419891357422,-86.67960357666016
KBNA,2348,46,02L,18,0,20R,198,0,36.117698669433594,-86.6865005493164,36.13779830932617,-86.67859649658203
KBNA,2438,46,02R,18,0,20L,198,0,36.112701416015625,-86.6676025390625,36.13359832763672,-86.6593017578125
KBNA,3362,46,13,133,244,31,313,226,36.141300201416016,-86.69539642333984,36.12049865722656,-86.66819763183594
KBOI,3048,46,10L,115,0,28R,295,0,43.5702018737793,-116.23699951171875,43.55860137939453,-116.2030029296875
KBOI,2976,46,10R,115,0,28L,295,0,43.56999969482422,-116.24299621582031,43.55870056152344,-116.20899963378906
KBOS,2396,46,04L,20,0,22R,200,250,42.358002,-71.014297,42.3783,-71.004501
KBOS,3050,46,04R,20,352,22L,200,365,42.35110092163086,-71.01180267333984,42.37689971923828,-70.99929809570312
KBOS,2134,46,09,77,0,27,257,0,42.35580062866211,-71.01290130615234,42.360198974609375,-70.98770141601562
KBOS,3073,46,15R,135,268,33L,315,0,42.374298095703125,-71.01789855957031,42.35459899902344,-70.9916000366211
KBPG,2683,30,17,182,0,35,2,0,32.22679901123047,-101.52100372314453,32.202598571777344,-101.52200317382812
KBPT,2057,46,12,121,0,30,301,0,29.955299377441406,-94.02780151367188,29.94580078125,-94.0094985961914
KBQK,2439,46,07,65,0,25,245,0,31.254199981689453,-81.47810363769531,31.263399124145508,-81.45490264892578
KBRD,1981,46,05,53,0,23,234,0,46.39459991455078,-94.14630126953125,46.40520095825195,-94.12560272216797
KBRL,2043,46,18,180,369,36,360,0,40.78879928588867,-91.1239013671875,40.77040100097656,-91.1238021850586
KBRO,2256,46,13R,135,0,31L,315,0,25.912799835205078,-97.4312973022461,25.898300170898438,-97.41549682617188
KBRO,1829,46,17,182,0,35,2,0,25.91510009765625,-97.42880249023438,25.89859962463379,-97.42949676513672
KBTL,3049,46,05,43,0,23,223,0,42.29570007324219,-85.26599884033203,42.31589889526367,-85.24099731445312
KBTM,2744,46,15,167,0,33,347,0,45.96689987182617,-112.5009994506836,45.942901611328125,-112.49299621582031
KBTR,2103,46,04L,43,0,22R,223,129,30.525699615478516,-91.15609741210938,30.539499282836914,-91.14099884033203
KBTR,2135,46,13,133,182,31,313,96,30.540700912475586,-91.16089630126953,30.52750015258789,-91.1447982788086
KBTV,2536,46,15,131,0,33,311,152,44.4807014465332,-73.16590118408203,44.46580123901367,-73.14179992675781
KBUF,2469,46,05,44,99,23,224,0,42.93119812011719,-78.74169921875,42.947200775146484,-78.720703125
KBUF,2183,46,14,127,98,32,307,219,42.9468994140625,-78.74169921875,42.93519973754883,-78.72019958496094
